{
  "type" : "FeatureCollection",
  "features" : [{"type":"Feature","id":0,"geometry":{"type":"Point","coordinates":[91.830657000120539,22.359334599911904]},"properties":{"FID":0,"name":"Chittagong Medical College Hospital","Category":"Health Facilities","Type":"Hospital","Ownership":"Government","Ward_Name":16,"Zone":4}},{"type":"Feature","id":1,"geometry":{"type":"Point","coordinates":[91.831543800006443,22.360102500430116]},"properties":{"FID":1,"name":"Chittagong Medical College","Category":"Health Facilities","Type":"Hospital","Ownership":"Government","Ward_Name":16,"Zone":4}},{"type":"Feature","id":2,"geometry":{"type":"Point","coordinates":[91.823456599742315,22.358937800139415]},"properties":{"FID":2,"name":"Chittagong Metropolitan Hospital","Category":"Health Facilities","Type":"Hospital","Ownership":"Private","Ward_Name":15,"Zone":4}},{"type":"Feature","id":3,"geometry":{"type":"Point","coordinates":[91.823758700004078,22.359339299768919]},"properties":{"FID":3,"name":"Metropolitan Clinic","Category":"Health Facilities","Type":"Hospital","Ownership":"Private","Ward_Name":15,"Zone":4}},{"type":"Feature","id":4,"geometry":{"type":"Point","coordinates":[91.824298000052693,22.359315400285539]},"properties":{"FID":4,"name":"Royal Hospital","Category":"Health Facilities","Type":"Hospital","Ownership":"Private","Ward_Name":15,"Zone":4}},{"type":"Feature","id":5,"geometry":{"type":"Point","coordinates":[91.824060800265784,22.359329900054888]},"properties":{"FID":5,"name":"Bell View Diagonistics","Category":"Health Facilities","Type":"Hospital","Ownership":"Private","Ward_Name":15,"Zone":4}},{"type":"Feature","id":6,"geometry":{"type":"Point","coordinates":[91.838128600054915,22.341204500387448]},"properties":{"FID":6,"name":"General Hospital","Category":"Health Facilities","Type":"Hospital","Ownership":"Government","Ward_Name":20,"Zone":3}},{"type":"Feature","id":7,"geometry":{"type":"Point","coordinates":[91.833968999969443,22.343781200142303]},"properties":{"FID":7,"name":"Centre Point Hospital ,  OS","Category":"Health Facilities","Type":"Hospital","Ownership":"Private","Ward_Name":21,"Zone":5}},{"type":"Feature","id":8,"geometry":{"type":"Point","coordinates":[91.829721799621439,22.361888400229532]},"properties":{"FID":8,"name":"Treatment Hospital","Category":"Health Facilities","Type":"Hospital","Ownership":"Private","Ward_Name":16,"Zone":4}},{"type":"Feature","id":9,"geometry":{"type":"Point","coordinates":[91.830400800356699,22.361853000215831]},"properties":{"FID":9,"name":"Holy Health Hospital","Category":"Health Facilities","Type":"Hospital","Ownership":"Private","Ward_Name":16,"Zone":4}},{"type":"Feature","id":10,"geometry":{"type":"Point","coordinates":[91.813601600333641,22.361431499664036]},"properties":{"FID":10,"name":"Surjer Hasi Clinic","Category":"Health Facilities","Type":"Hospital","Ownership":"Private","Ward_Name":13,"Zone":7}},{"type":"Feature","id":11,"geometry":{"type":"Point","coordinates":[91.816055600185848,22.361220599651006]},"properties":{"FID":11,"name":"Lions Charitable Eye Hospital","Category":"Health Facilities","Type":"Hospital","Ownership":"NGO/Institutional","Ward_Name":13,"Zone":7}},{"type":"Feature","id":12,"geometry":{"type":"Point","coordinates":[91.795811899599528,22.360667899703856]},"properties":{"FID":12,"name":"Imperial Hospital","Category":"Health Facilities","Type":"Hospital","Ownership":"Private","Ward_Name":13,"Zone":7}},{"type":"Feature","id":13,"geometry":{"type":"Point","coordinates":[91.797692399984328,22.36152870018941]},"properties":{"FID":13,"name":"Banghabondhu Memorial Hospital","Category":"Health Facilities","Type":"Hospital","Ownership":"Private","Ward_Name":13,"Zone":7}},{"type":"Feature","id":14,"geometry":{"type":"Point","coordinates":[91.80935570040532,22.362018099555712]},"properties":{"FID":14,"name":"Holy Crescent Hospital","Category":"Health Facilities","Type":"Hospital","Ownership":"Private","Ward_Name":13,"Zone":7}},{"type":"Feature","id":15,"geometry":{"type":"Point","coordinates":[91.802456099869175,22.361782499662695]},"properties":{"FID":15,"name":"Chittagong diabetic and general Hospital","Category":"Health Facilities","Type":"Hospital","Ownership":"Government","Ward_Name":13,"Zone":7}},{"type":"Feature","id":16,"geometry":{"type":"Point","coordinates":[91.798177100392934,22.361721100248644]},"properties":{"FID":16,"name":"USTC Medical College Hospital","Category":"Health Facilities","Type":"Hospital","Ownership":"Government","Ward_Name":13,"Zone":7}},{"type":"Feature","id":17,"geometry":{"type":"Point","coordinates":[91.82224289989,22.359403999694905]},"properties":{"FID":17,"name":"Central Plaza Pharmacy","Category":"Health Facilities","Type":"Pharmacy","Ownership":"Informal","Ward_Name":15,"Zone":4}},{"type":"Feature","id":18,"geometry":{"type":"Point","coordinates":[91.868978000134632,22.394263900358737]},"properties":{"FID":18,"name":"Medical Square","Category":"Health Facilities","Type":"Hospital","Ownership":"Private","Ward_Name":4,"Zone":4}},{"type":"Feature","id":19,"geometry":{"type":"Point","coordinates":[91.830382300402903,22.360605100045404]},"properties":{"FID":19,"name":"Chittagong Medical College","Category":"Health Facilities","Type":"Hospital","Ownership":"Government","Ward_Name":16,"Zone":4}},{"type":"Feature","id":20,"geometry":{"type":"Point","coordinates":[91.843081299662288,22.367408400277498]},"properties":{"FID":20,"name":"Modern Diagnostic Center,OS","Category":"Health Facilities","Type":"Hospital","Ownership":"Private","Ward_Name":8,"Zone":4}},{"type":"Feature","id":21,"geometry":{"type":"Point","coordinates":[91.826521000044181,22.359183600143069]},"properties":{"FID":21,"name":"Marie Stopes Clinic","Category":"Health Facilities","Type":"Hospital","Ownership":"Private","Ward_Name":15,"Zone":4}},{"type":"Feature","id":22,"geometry":{"type":"Point","coordinates":[91.825142500326194,22.3588273004396]},"properties":{"FID":22,"name":"labaid diagnostic center","Category":"Health Facilities","Type":"Hospital","Ownership":"Private","Ward_Name":15,"Zone":4}},{"type":"Feature","id":23,"geometry":{"type":"Point","coordinates":[91.831771500254604,22.360910400094951]},"properties":{"FID":23,"name":"Popular Diagnostic Center","Category":"Health Facilities","Type":"Hospital","Ownership":"Private","Ward_Name":16,"Zone":4}},{"type":"Feature","id":24,"geometry":{"type":"Point","coordinates":[91.825463300191188,22.358303400381658]},"properties":{"FID":24,"name":"Metro diagnostic center","Category":"Health Facilities","Type":"Hospital","Ownership":"Private","Ward_Name":15,"Zone":4}},{"type":"Feature","id":25,"geometry":{"type":"Point","coordinates":[91.831205699883185,22.361090699776014]},"properties":{"FID":25,"name":"Chittagong Shishu Hospital","Category":"Health Facilities","Type":"Hospital","Ownership":"Government","Ward_Name":16,"Zone":4}},{"type":"Feature","id":26,"geometry":{"type":"Point","coordinates":[91.868987499673437,22.394234399897698]},"properties":{"FID":26,"name":"Medical  square ,OS","Category":"Health Facilities","Type":"Doctor's Chamber","Ownership":"Private","Ward_Name":4,"Zone":4}},{"type":"Feature","id":27,"geometry":{"type":"Point","coordinates":[91.837450799914564,22.342437300041411]},"properties":{"FID":27,"name":"Jemison redcrescent maternity hospital,Anderkilla","Category":"Health Facilities","Type":"Hospital","Ownership":"Private","Ward_Name":20,"Zone":3}},{"type":"Feature","id":28,"geometry":{"type":"Point","coordinates":[91.837450700089789,22.342437300041411]},"properties":{"FID":28,"name":"Jemison redcrescent maternity hospital,Anderkilla","Category":"Health Facilities","Type":"Hospital","Ownership":"Private","Ward_Name":20,"Zone":3}},{"type":"Feature","id":29,"geometry":{"type":"Point","coordinates":[91.83373790028395,22.36045320005519]},"properties":{"FID":29,"name":"Health Home Private Clinic","Category":"Health Facilities","Type":"Hospital","Ownership":"Private","Ward_Name":16,"Zone":4}},{"type":"Feature","id":30,"geometry":{"type":"Point","coordinates":[91.833257999557077,22.36020620035589]},"properties":{"FID":30,"name":"Mirror Hospital Limited.","Category":"Health Facilities","Type":"Hospital","Ownership":"Private","Ward_Name":16,"Zone":4}},{"type":"Feature","id":31,"geometry":{"type":"Point","coordinates":[91.833882899776086,22.360283499783748]},"properties":{"FID":31,"name":"Mohila O Sishu Hospital,OS","Category":"Health Facilities","Type":"Hospital","Ownership":"Private","Ward_Name":16,"Zone":4}},{"type":"Feature","id":32,"geometry":{"type":"Point","coordinates":[91.833448799722362,22.360462699593938]},"properties":{"FID":32,"name":"Surgiscope hospital unit 1 OS","Category":"Health Facilities","Type":"Hospital","Ownership":"Private","Ward_Name":16,"Zone":4}},{"type":"Feature","id":33,"geometry":{"type":"Point","coordinates":[91.835104199799048,22.359628699804716]},"properties":{"FID":33,"name":"Woodland Diagnostic Center","Category":"Health Facilities","Type":"Clinic","Ownership":"Private","Ward_Name":16,"Zone":4}},{"type":"Feature","id":34,"geometry":{"type":"Point","coordinates":[91.837469799891437,22.359799900145333]},"properties":{"FID":34,"name":"Surgiscope Hospital unit 2","Category":"Health Facilities","Type":"Hospital","Ownership":"Private","Ward_Name":16,"Zone":4}},{"type":"Feature","id":35,"geometry":{"type":"Point","coordinates":[91.833933599955742,22.365189399571193]},"properties":{"FID":35,"name":"Doctor's hospital(OS)","Category":"Health Facilities","Type":"Hospital","Ownership":"Private","Ward_Name":8,"Zone":4}},{"type":"Feature","id":36,"geometry":{"type":"Point","coordinates":[91.830525500351598,22.363137699745096]},"properties":{"FID":36,"name":"CSCR storke unit","Category":"Health Facilities","Type":"Hospital","Ownership":"Private","Ward_Name":16,"Zone":4}},{"type":"Feature","id":37,"geometry":{"type":"Point","coordinates":[91.828975300269974,22.361448299899166]},"properties":{"FID":37,"name":"Checkup Diagnostic Centre","Category":"Health Facilities","Type":"Hospital","Ownership":"Private","Ward_Name":16,"Zone":4}},{"type":"Feature","id":38,"geometry":{"type":"Point","coordinates":[91.834738299832736,22.362955099598196]},"properties":{"FID":38,"name":"Chowdhury and Sons","Category":"Health Facilities","Type":"Pharmacy","Ownership":"Private","Ward_Name":16,"Zone":4}},{"type":"Feature","id":39,"geometry":{"type":"Point","coordinates":[91.834656099999052,22.362448499798461]},"properties":{"FID":39,"name":"Niramoy Clinic","Category":"Health Facilities","Type":"Hospital","Ownership":"Private","Ward_Name":16,"Zone":4}},{"type":"Feature","id":40,"geometry":{"type":"Point","coordinates":[91.821422499648691,22.352419899758615]},"properties":{"FID":40,"name":"Police Lines Hospital","Category":"Health Facilities","Type":"Hospital","Ownership":"Government","Ward_Name":14,"Zone":3}},{"type":"Feature","id":41,"geometry":{"type":"Point","coordinates":[91.832013100424319,22.331399700236034]},"properties":{"FID":41,"name":"Menon Hospital","Category":"Health Facilities","Type":"Hospital","Ownership":"Private","Ward_Name":31,"Zone":5}},{"type":"Feature","id":42,"geometry":{"type":"Point","coordinates":[91.811456700166616,22.327727699973423]},"properties":{"FID":42,"name":"Nawabi","Category":"Health Facilities","Type":"Hospital","Ownership":"Private","Ward_Name":24,"Zone":1}},{"type":"Feature","id":43,"geometry":{"type":"Point","coordinates":[91.833481999994376,22.366102799604562]},"properties":{"FID":43,"name":"Ekushe Hospital","Category":"Health Facilities","Type":"Hospital","Ownership":"Private","Ward_Name":8,"Zone":4}},{"type":"Feature","id":44,"geometry":{"type":"Point","coordinates":[91.802723399964975,22.328888900102697]},"properties":{"FID":44,"name":"Agrabad Eye Hospital","Category":"Health Facilities","Type":"Hospital","Ownership":"Private","Ward_Name":24,"Zone":1}},{"type":"Feature","id":45,"geometry":{"type":"Point","coordinates":[91.839567300390684,22.363513799822044]},"properties":{"FID":45,"name":"Lucky Pharmacy","Category":"Health Facilities","Type":"Pharmacy","Ownership":"Informal","Ward_Name":8,"Zone":4}},{"type":"Feature","id":46,"geometry":{"type":"Point","coordinates":[91.834936799993386,22.359679800182676]},"properties":{"FID":46,"name":"Ma Moni Hospital","Category":"Health Facilities","Type":"Hospital","Ownership":"NGO/Institutional","Ward_Name":16,"Zone":4}},{"type":"Feature","id":47,"geometry":{"type":"Point","coordinates":[91.852436900142891,22.360251699756191]},"properties":{"FID":47,"name":"Orin Dental Care","Category":"Health Facilities","Type":"Hospital","Ownership":"Informal","Ward_Name":6,"Zone":4}},{"type":"Feature","id":48,"geometry":{"type":"Point","coordinates":[91.833918199965012,22.346164300142391]},"properties":{"FID":48,"name":"Sensive Diagnostics Center","Category":"Health Facilities","Type":"Hospital","Ownership":"Private","Ward_Name":21,"Zone":5}},{"type":"Feature","id":49,"geometry":{"type":"Point","coordinates":[91.834014400444289,22.344654500305012]},"properties":{"FID":49,"name":"Bellevue Diagnostic Center","Category":"Health Facilities","Type":"Hospital","Ownership":"Private","Ward_Name":21,"Zone":5}},{"type":"Feature","id":50,"geometry":{"type":"Point","coordinates":[91.833553100395307,22.344666900157392]},"properties":{"FID":50,"name":"Lab one diagnostic center","Category":"Health Facilities","Type":"Hospital","Ownership":"Private","Ward_Name":21,"Zone":5}},{"type":"Feature","id":51,"geometry":{"type":"Point","coordinates":[91.850576600329873,22.378177100093126]},"properties":{"FID":51,"name":"Bangladesh Medicine Supply","Category":"Health Facilities","Type":"Pharmacy","Ownership":"Private","Ward_Name":4,"Zone":4}},{"type":"Feature","id":52,"geometry":{"type":"Point","coordinates":[91.832976699715005,22.343967099901818]},"properties":{"FID":52,"name":"Bangladesh Diabetic Foot Saving Centre","Category":"Health Facilities","Type":"Hospital","Ownership":"Private","Ward_Name":21,"Zone":5}},{"type":"Feature","id":53,"geometry":{"type":"Point","coordinates":[91.786017599932336,22.358181699625788]},"properties":{"FID":53,"name":"The Prime Lab","Category":"Health Facilities","Type":"Clinic","Ownership":"Private","Ward_Name":9,"Zone":7}},{"type":"Feature","id":54,"geometry":{"type":"Point","coordinates":[91.786068599586258,22.358104800396291]},"properties":{"FID":54,"name":"Joyita Dental Care","Category":"Health Facilities","Type":"Dentist","Ownership":"Informal","Ward_Name":9,"Zone":7}},{"type":"Feature","id":55,"geometry":{"type":"Point","coordinates":[91.833468500271124,22.333123199675981]},"properties":{"FID":55,"name":"Memon-2","Category":"Health Facilities","Type":"Hospital","Ownership":"CCC","Ward_Name":31,"Zone":5}},{"type":"Feature","id":56,"geometry":{"type":"Point","coordinates":[91.795943400267788,22.360441900073681]},"properties":{"FID":56,"name":"Eye infarmary and training complex","Category":"Health Facilities","Type":"Hospital","Ownership":"Private","Ward_Name":13,"Zone":7}},{"type":"Feature","id":57,"geometry":{"type":"Point","coordinates":[91.833414600303627,22.366070499553985]},"properties":{"FID":57,"name":"Ekushey Hospital,Mirzapul(OS)","Category":"Health Facilities","Type":"Hospital","Ownership":"Private","Ward_Name":8,"Zone":4}},{"type":"Feature","id":58,"geometry":{"type":"Point","coordinates":[91.836502599715288,22.359695399822897]},"properties":{"FID":58,"name":"People's Hospital","Category":"Health Facilities","Type":"Hospital","Ownership":"Private","Ward_Name":16,"Zone":4}},{"type":"Feature","id":59,"geometry":{"type":"Point","coordinates":[91.836337799849616,22.359727000200962]},"properties":{"FID":59,"name":"Atm corner pharmacy","Category":"Health Facilities","Type":"Pharmacy","Ownership":"Informal","Ward_Name":16,"Zone":4}},{"type":"Feature","id":60,"geometry":{"type":"Point","coordinates":[91.834205599908557,22.34508650044171]},"properties":{"FID":60,"name":"Sensive","Category":"Health Facilities","Type":"Doctor's Chamber","Ownership":"Private","Ward_Name":21,"Zone":5}},{"type":"Feature","id":61,"geometry":{"type":"Point","coordinates":[91.828731299809704,22.353896199849771]},"properties":{"FID":61,"name":"Desh medical Services","Category":"Health Facilities","Type":"Hospital","Ownership":"Private","Ward_Name":15,"Zone":4}},{"type":"Feature","id":62,"geometry":{"type":"Point","coordinates":[91.819266500048968,22.242617400272877]},"properties":{"FID":62,"name":"Turna Medical Hall","Category":"Health Facilities","Type":"Hospital","Ownership":"Informal","Ward_Name":41,"Zone":2}},{"type":"Feature","id":63,"geometry":{"type":"Point","coordinates":[91.800578099599647,22.267509100264817]},"properties":{"FID":63,"name":"Medical Center","Category":"Health Facilities","Type":"Hospital","Ownership":"Private","Ward_Name":40,"Zone":2}},{"type":"Feature","id":64,"geometry":{"type":"Point","coordinates":[91.783723799913503,22.283298500125738]},"properties":{"FID":64,"name":"Momota Clinic & Hospital, M. A Aziz Rd, Chattogram","Category":"Health Facilities","Type":"Hospital","Ownership":"NGO/Institutional","Ward_Name":39,"Zone":2}},{"type":"Feature","id":65,"geometry":{"type":"Point","coordinates":[91.825338199997987,22.355143000149383]},"properties":{"FID":65,"name":"Max Hospital","Category":"Health Facilities","Type":"Hospital","Ownership":"Private","Ward_Name":15,"Zone":4}},{"type":"Feature","id":66,"geometry":{"type":"Point","coordinates":[91.784444200039843,22.338305599623766]},"properties":{"FID":66,"name":"Amin Medical Hall","Category":"Health Facilities","Type":"Pharmacy","Ownership":"Informal","Ward_Name":26,"Zone":2}},{"type":"Feature","id":67,"geometry":{"type":"Point","coordinates":[91.784173899805694,22.339012000003834]},"properties":{"FID":67,"name":"Ahasan Medical Hall","Category":"Health Facilities","Type":"Pharmacy","Ownership":"Informal","Ward_Name":26,"Zone":2}},{"type":"Feature","id":68,"geometry":{"type":"Point","coordinates":[91.779396200174574,22.331631700142907]},"properties":{"FID":68,"name":"Gunners Medical Facility","Category":"Health Facilities","Type":"Clinic","Ownership":"Private","Ward_Name":26,"Zone":2}},{"type":"Feature","id":69,"geometry":{"type":"Point","coordinates":[91.796205399759458,22.313629600225909]},"properties":{"FID":69,"name":"Chattogram Port Hospital, Port Colony Rd, Chattogram","Category":"Health Facilities","Type":"Hospital","Ownership":"NGO/Institutional","Ward_Name":36,"Zone":1}},{"type":"Feature","id":70,"geometry":{"type":"Point","coordinates":[91.792022000015322,22.329115999603744]},"properties":{"FID":70,"name":"Mother and Child Care Hospital","Category":"Health Facilities","Type":"Hospital","Ownership":"NGO/Institutional","Ward_Name":24,"Zone":1}},{"type":"Feature","id":71,"geometry":{"type":"Point","coordinates":[91.816506200101117,22.408886199638459]},"properties":{"FID":71,"name":"Cantonment Board General Hospital, Tiger Rd, Chattogram","Category":"Health Facilities","Type":"Hospital","Ownership":"Government","Ward_Name":2,"Zone":6}},{"type":"Feature","id":72,"geometry":{"type":"Point","coordinates":[91.830503000213355,22.363527900292411]},"properties":{"FID":72,"name":"Belle Vue Hospital ( under construction)","Category":"Health Facilities","Type":"Hospital","Ownership":"Private","Ward_Name":8,"Zone":4}},{"type":"Feature","id":73,"geometry":{"type":"Point","coordinates":[91.785451799560974,22.343814000216014]},"properties":{"FID":73,"name":"JANNAT DENTAL CARE CHITTAGONG","Category":"Health Facilities","Type":"Dentist","Ownership":"Informal","Ward_Name":26,"Zone":2}},{"type":"Feature","id":74,"geometry":{"type":"Point","coordinates":[91.826711800209466,22.389782500362173]},"properties":{"FID":74,"name":"Musa Pharmacy","Category":"Health Facilities","Type":"Pharmacy","Ownership":"Informal","Ward_Name":3,"Zone":6}},{"type":"Feature","id":75,"geometry":{"type":"Point","coordinates":[91.824470200439464,22.389811700449684]},"properties":{"FID":75,"name":"Al Nur Pharmacy","Category":"Health Facilities","Type":"Pharmacy","Ownership":"Informal","Ward_Name":3,"Zone":6}},{"type":"Feature","id":76,"geometry":{"type":"Point","coordinates":[91.824224699910019,22.389329299607539]},"properties":{"FID":76,"name":"Fayezia Medico","Category":"Health Facilities","Type":"Pharmacy","Ownership":"Informal","Ward_Name":7,"Zone":6}},{"type":"Feature","id":77,"geometry":{"type":"Point","coordinates":[91.834120999784375,22.364675400149622]},"properties":{"FID":77,"name":"Delta Health Care Chattogram Ltd","Category":"Health Facilities","Type":"Hospital","Ownership":"Private","Ward_Name":8,"Zone":4}},{"type":"Feature","id":78,"geometry":{"type":"Point","coordinates":[91.834267900443308,22.365008099843976]},"properties":{"FID":78,"name":"Life Plus Pharmacy","Category":"Health Facilities","Type":"Pharmacy","Ownership":"Informal","Ward_Name":8,"Zone":4}},{"type":"Feature","id":79,"geometry":{"type":"Point","coordinates":[91.82572910021787,22.358967299701192]},"properties":{"FID":79,"name":"Jahangir Dental","Category":"Health Facilities","Type":"Clinic","Ownership":"Informal","Ward_Name":15,"Zone":4}},{"type":"Feature","id":80,"geometry":{"type":"Point","coordinates":[91.825828399760894,22.358973600351419]},"properties":{"FID":80,"name":"Apan Pharma","Category":"Health Facilities","Type":"Pharmacy","Ownership":"Private","Ward_Name":15,"Zone":4}},{"type":"Feature","id":81,"geometry":{"type":"Point","coordinates":[91.826357300049438,22.359093899963568]},"properties":{"FID":81,"name":"Physical Medicine Center","Category":"Health Facilities","Type":"Pharmacy","Ownership":"Private","Ward_Name":15,"Zone":4}},{"type":"Feature","id":82,"geometry":{"type":"Point","coordinates":[91.826417499767842,22.359134200383096]},"properties":{"FID":82,"name":"Creative Dental","Category":"Health Facilities","Type":"Clinic","Ownership":"Informal","Ward_Name":15,"Zone":4}},{"type":"Feature","id":83,"geometry":{"type":"Point","coordinates":[91.827080399940542,22.35961460023367]},"properties":{"FID":83,"name":"Meristop Clinic","Category":"Health Facilities","Type":"Clinic","Ownership":"Private","Ward_Name":15,"Zone":4}},{"type":"Feature","id":84,"geometry":{"type":"Point","coordinates":[91.82775820008095,22.360010099586475]},"properties":{"FID":84,"name":"Premier Hospital","Category":"Health Facilities","Type":"Hospital","Ownership":"Private","Ward_Name":15,"Zone":4}},{"type":"Feature","id":85,"geometry":{"type":"Point","coordinates":[91.828028699964591,22.360214299650238]},"properties":{"FID":85,"name":"Jobeda Pharmacy","Category":"Health Facilities","Type":"Pharmacy","Ownership":"Informal","Ward_Name":15,"Zone":4}},{"type":"Feature","id":86,"geometry":{"type":"Point","coordinates":[91.828196400143838,22.360371000221505]},"properties":{"FID":86,"name":"Pinon Pharmacy","Category":"Health Facilities","Type":"Pharmacy","Ownership":"Informal","Ward_Name":15,"Zone":4}},{"type":"Feature","id":87,"geometry":{"type":"Point","coordinates":[91.83049349977523,22.360741400395341]},"properties":{"FID":87,"name":"Sahadat Pharma","Category":"Health Facilities","Type":"Pharmacy","Ownership":"Private","Ward_Name":16,"Zone":4}},{"type":"Feature","id":88,"geometry":{"type":"Point","coordinates":[91.83031889999728,22.360755699615879]},"properties":{"FID":88,"name":"Shathi Medical Hall","Category":"Health Facilities","Type":"Pharmacy","Ownership":"Informal","Ward_Name":16,"Zone":4}},{"type":"Feature","id":89,"geometry":{"type":"Point","coordinates":[91.829707799875109,22.360787299993945]},"properties":{"FID":89,"name":"Central Lab","Category":"Health Facilities","Type":"Clinic","Ownership":"Private","Ward_Name":16,"Zone":4}},{"type":"Feature","id":90,"geometry":{"type":"Point","coordinates":[91.849159999934102,22.369127299685204]},"properties":{"FID":90,"name":"Safe Maternity Hospital","Category":"Health Facilities","Type":"Hospital","Ownership":"Private","Ward_Name":6,"Zone":4}},{"type":"Feature","id":91,"geometry":{"type":"Point","coordinates":[91.835988299920189,22.342685199962034]},"properties":{"FID":91,"name":"Epic Health Care","Category":"Health Facilities","Type":"Clinic","Ownership":"Private","Ward_Name":32,"Zone":5}},{"type":"Feature","id":92,"geometry":{"type":"Point","coordinates":[91.834136799973408,22.34365729964469]},"properties":{"FID":92,"name":"Centre Point Hospital (Pvt) Limited","Category":"Health Facilities","Type":"Hospital","Ownership":"Private","Ward_Name":21,"Zone":5}},{"type":"Feature","id":93,"geometry":{"type":"Point","coordinates":[91.821442899869965,22.352343899851121]},"properties":{"FID":93,"name":"Police Line Hospital","Category":"Health Facilities","Type":"Hospital","Ownership":"Government","Ward_Name":14,"Zone":3}},{"type":"Feature","id":94,"geometry":{"type":"Point","coordinates":[91.816245199756224,22.353410500294387]},"properties":{"FID":94,"name":"Mamata Clinic","Category":"Health Facilities","Type":"Hospital","Ownership":"NGO/Institutional","Ward_Name":13,"Zone":7}},{"type":"Feature","id":95,"geometry":{"type":"Point","coordinates":[91.775803699980827,22.370750000412215]},"properties":{"FID":95,"name":"Adhunik Pharmacy, Ishan Mohajon Road, Salimpur, Chattogram","Category":"Health Facilities","Type":"Pharmacy","Ownership":"Informal","Ward_Name":10,"Zone":7}},{"type":"Feature","id":96,"geometry":{"type":"Point","coordinates":[91.774347200263151,22.366730399588334]},"properties":{"FID":96,"name":"Rion Pharmacy, Amanat Ullah Shah Rd, Chattogram","Category":"Health Facilities","Type":"Pharmacy","Ownership":"Informal","Ward_Name":10,"Zone":7}},{"type":"Feature","id":97,"geometry":{"type":"Point","coordinates":[91.771607299637253,22.373584999847935]},"properties":{"FID":97,"name":"Alhajj Mostofa-Hakim Maternity Hospital, Mostafahakim maternity hospital, Mostafa Hakim Road, Chatto","Category":"Health Facilities","Type":"Hospital","Ownership":"Private","Ward_Name":10,"Zone":7}},{"type":"Feature","id":98,"geometry":{"type":"Point","coordinates":[91.771784299705701,22.373934700326231]},"properties":{"FID":98,"name":"Shilpi Pharmacy, Mostofa-Hakim College Rd, Chattogram","Category":"Health Facilities","Type":"Pharmacy","Ownership":"Informal","Ward_Name":10,"Zone":7}},{"type":"Feature","id":99,"geometry":{"type":"Point","coordinates":[91.769333899839637,22.373389099627275]},"properties":{"FID":99,"name":"S.R Medical Hall, City Gate, Mostfa Hakim College Road, Chattogram","Category":"Health Facilities","Type":"Pharmacy","Ownership":"Informal","Ward_Name":10,"Zone":7}},{"type":"Feature","id":100,"geometry":{"type":"Point","coordinates":[91.777614699858589,22.368896500373239]},"properties":{"FID":100,"name":"Cornell Pharmacy O Cosmetic Khyatna Centre, Cornellhat School Market, Chattogram","Category":"Health Facilities","Type":"Pharmacy","Ownership":"Informal","Ward_Name":10,"Zone":7}},{"type":"Feature","id":101,"geometry":{"type":"Point","coordinates":[91.76804620017208,22.362958800308434]},"properties":{"FID":101,"name":"Anwara Pharmacy, Colonel Jones Road, Chattogram","Category":"Health Facilities","Type":"Pharmacy","Ownership":"Informal","Ward_Name":10,"Zone":7}},{"type":"Feature","id":102,"geometry":{"type":"Point","coordinates":[91.774123699848928,22.338415299826295]},"properties":{"FID":102,"name":"Hahnemann is Homeo, Halishahar Housing Estate, Chattogram","Category":"Health Facilities","Type":"Pharmacy","Ownership":"Informal","Ward_Name":26,"Zone":2}},{"type":"Feature","id":103,"geometry":{"type":"Point","coordinates":[91.775950400090949,22.338203299942393]},"properties":{"FID":103,"name":"Ms madina pharmacy, Halishahar Housing Estate, Chattogram","Category":"Health Facilities","Type":"Pharmacy","Ownership":"Informal","Ward_Name":26,"Zone":2}},{"type":"Feature","id":104,"geometry":{"type":"Point","coordinates":[91.77588479994364,22.338582400157691]},"properties":{"FID":104,"name":"Jinat Pharmacy","Category":"Health Facilities","Type":"Pharmacy","Ownership":"Informal","Ward_Name":26,"Zone":2}},{"type":"Feature","id":105,"geometry":{"type":"Point","coordinates":[91.783957899737345,22.362790500281392]},"properties":{"FID":105,"name":"Satata Pharmacy, Zakir Hossain Road, Adjacent to Al Amin Hospital, Akbarshah, North Pahartali, Chatt","Category":"Health Facilities","Type":"Pharmacy","Ownership":"Private","Ward_Name":9,"Zone":7}},{"type":"Feature","id":106,"geometry":{"type":"Point","coordinates":[91.782602900203756,22.362403000398217]},"properties":{"FID":106,"name":"Hijama Center Chittagong,Medical Center, Zakir Hossain Road, A.K khan Gate, Pahartali, Chattogram","Category":"Health Facilities","Type":"Clinic","Ownership":"Private","Ward_Name":9,"Zone":7}},{"type":"Feature","id":107,"geometry":{"type":"Point","coordinates":[91.784019600424301,22.362700300078814]},"properties":{"FID":107,"name":"Al Amin Hospital (Pvt.) Limited, Zakir Hossain Rd, Chattogram","Category":"Health Facilities","Type":"Hospital","Ownership":"Private","Ward_Name":9,"Zone":7}},{"type":"Feature","id":108,"geometry":{"type":"Point","coordinates":[91.783732300305473,22.362678499613139]},"properties":{"FID":108,"name":"Health Care Medical Hall, Zakir Hossain Road, Akbarshah, Pahartali, Chattogram","Category":"Health Facilities","Type":"Pharmacy","Ownership":"Informal","Ward_Name":9,"Zone":7}},{"type":"Feature","id":109,"geometry":{"type":"Point","coordinates":[91.782635899926902,22.357999600401286]},"properties":{"FID":109,"name":"Janata Pharmacy, B.S. Plaza, Abdul Ali Hat, Near Alankar More, Pahartali, Chattogram","Category":"Health Facilities","Type":"Pharmacy","Ownership":"Informal","Ward_Name":10,"Zone":7}},{"type":"Feature","id":110,"geometry":{"type":"Point","coordinates":[91.783087700437079,22.358521799841242]},"properties":{"FID":110,"name":"New Alankar Pharmacy, Zia Market, Alankar More, Pahartoli, Opp. Jelar Hat, Chattogram","Category":"Health Facilities","Type":"Pharmacy","Ownership":"Informal","Ward_Name":9,"Zone":7}},{"type":"Feature","id":111,"geometry":{"type":"Point","coordinates":[91.784897200245666,22.36294989971816]},"properties":{"FID":111,"name":"M/s. Ma Pharmacy","Category":"Health Facilities","Type":"Pharmacy","Ownership":"Informal","Ward_Name":9,"Zone":7}},{"type":"Feature","id":112,"geometry":{"type":"Point","coordinates":[91.785886600186529,22.358384699993962]},"properties":{"FID":112,"name":"M/S. Mollah Pharmacy,Hazi Amanotullah Road,C.D.A Market, Pahartali, Chattogram","Category":"Health Facilities","Type":"Pharmacy","Ownership":"Informal","Ward_Name":9,"Zone":7}},{"type":"Feature","id":113,"geometry":{"type":"Point","coordinates":[91.787453599604021,22.358690099868284]},"properties":{"FID":113,"name":"The Life Pharmacy, Mohiuddin Market,Abdul Barek Road, C.D.A Market, Pahartali, Chattogram","Category":"Health Facilities","Type":"Pharmacy","Ownership":"Informal","Ward_Name":9,"Zone":7}},{"type":"Feature","id":114,"geometry":{"type":"Point","coordinates":[91.79182809988697,22.360095599932038]},"properties":{"FID":114,"name":"Surgicare Hospital Ltd.","Category":"Health Facilities","Type":"Hospital","Ownership":"Private","Ward_Name":9,"Zone":7}},{"type":"Feature","id":115,"geometry":{"type":"Point","coordinates":[91.786727200100245,22.34714390017092]},"properties":{"FID":115,"name":"Green View Pharmacy, Unnamed Road, Chattogram","Category":"Health Facilities","Type":"Pharmacy","Ownership":"Informal","Ward_Name":11,"Zone":7}},{"type":"Feature","id":116,"geometry":{"type":"Point","coordinates":[91.788770299709597,22.333523399785122]},"properties":{"FID":116,"name":"Professor (Dr.) Rawshon Morshed, Plot 9/A, Lane-2, Block-G, Halisahar Housing Estate, Chattogram","Category":"Health Facilities","Type":"Doctor's Chamber","Ownership":"Private","Ward_Name":26,"Zone":2}},{"type":"Feature","id":117,"geometry":{"type":"Point","coordinates":[91.788867100036668,22.330826400418118]},"properties":{"FID":117,"name":"Hamdard Laboratories (WAQF) Bangladesh, Dhaka - Chittagong Highway, Chattogram","Category":"Health Facilities","Type":"Pharmacy","Ownership":"Private","Ward_Name":26,"Zone":2}},{"type":"Feature","id":118,"geometry":{"type":"Point","coordinates":[91.788996700437451,22.329178999811063]},"properties":{"FID":118,"name":"Royal Community Eye Hospital & Phaco Centre., Rd No 5, Chattogram","Category":"Health Facilities","Type":"Hospital","Ownership":"Private","Ward_Name":26,"Zone":2}},{"type":"Feature","id":119,"geometry":{"type":"Point","coordinates":[91.788605099645679,22.328863999673899]},"properties":{"FID":119,"name":"Shefa Dental Care","Category":"Health Facilities","Type":"Pharmacy","Ownership":"Informal","Ward_Name":26,"Zone":2}},{"type":"Feature","id":120,"geometry":{"type":"Point","coordinates":[91.788910700068811,22.327976000092406]},"properties":{"FID":120,"name":"Mohsen Aoulia Dental Care, Isabella Tower, Dhaka - Chittagong Highway, Chattogram","Category":"Health Facilities","Type":"Dentist","Ownership":"Informal","Ward_Name":26,"Zone":2}},{"type":"Feature","id":121,"geometry":{"type":"Point","coordinates":[91.786321800111068,22.34978529985176]},"properties":{"FID":121,"name":"Sha Jabbaria Pharmacy, Sharaipara Bus Stop, Port Connecting Rd, Chattogram","Category":"Health Facilities","Type":"Pharmacy","Ownership":"Informal","Ward_Name":12,"Zone":7}},{"type":"Feature","id":122,"geometry":{"type":"Point","coordinates":[91.786458599584762,22.349730700211694]},"properties":{"FID":122,"name":"Mouth dental clinic","Category":"Health Facilities","Type":"Dentist","Ownership":"Private","Ward_Name":12,"Zone":7}},{"type":"Feature","id":123,"geometry":{"type":"Point","coordinates":[91.788250399836159,22.343950500215442]},"properties":{"FID":123,"name":"B.A. salma Medical hall, Port Connecting Rd, Chattogram","Category":"Health Facilities","Type":"Pharmacy","Ownership":"Informal","Ward_Name":25,"Zone":7}},{"type":"Feature","id":124,"geometry":{"type":"Point","coordinates":[91.789216299592624,22.333433699605621]},"properties":{"FID":124,"name":"EPCS & Medicine, Halishahor, Chattogram","Category":"Health Facilities","Type":"Pharmacy","Ownership":"Private","Ward_Name":25,"Zone":7}},{"type":"Feature","id":125,"geometry":{"type":"Point","coordinates":[91.789455600195879,22.328487399573874]},"properties":{"FID":125,"name":"AMS- Available Medicine Service","Category":"Health Facilities","Type":"Pharmacy","Ownership":"Private","Ward_Name":24,"Zone":1}},{"type":"Feature","id":126,"geometry":{"type":"Point","coordinates":[91.789359600265414,22.331092300269518]},"properties":{"FID":126,"name":"Freshdent Dental Solution, House-13, Block-L, 2nd Floor, Road-1 Halishahar Rd, Chattogram","Category":"Health Facilities","Type":"Dentist","Ownership":"Informal","Ward_Name":25,"Zone":7}},{"type":"Feature","id":127,"geometry":{"type":"Point","coordinates":[91.792218199710192,22.329175600373731]},"properties":{"FID":127,"name":"Mother And Child Care Hospital, Plot No 2 and 3, 2nd - 5th Floor M.K Plaza, Chattogram","Category":"Health Facilities","Type":"Hospital","Ownership":"NGO/Institutional","Ward_Name":24,"Zone":1}},{"type":"Feature","id":128,"geometry":{"type":"Point","coordinates":[91.791941099702058,22.329011000157607]},"properties":{"FID":128,"name":"KR Dental Care","Category":"Health Facilities","Type":"Hospital","Ownership":"Informal","Ward_Name":24,"Zone":1}},{"type":"Feature","id":129,"geometry":{"type":"Point","coordinates":[91.791489100441709,22.32981870017295]},"properties":{"FID":129,"name":"S Hoque Pharmacy, Agrabad Access Rd, Chattogram","Category":"Health Facilities","Type":"Pharmacy","Ownership":"Informal","Ward_Name":25,"Zone":7}},{"type":"Feature","id":130,"geometry":{"type":"Point","coordinates":[91.793988200395177,22.329788699688777]},"properties":{"FID":130,"name":"South Point Hospital, Agrabad Access Rd, Westseite der Zila-Polizeilinie, Chotopool, Chattogram","Category":"Health Facilities","Type":"Hospital","Ownership":"Private","Ward_Name":24,"Zone":1}},{"type":"Feature","id":131,"geometry":{"type":"Point","coordinates":[91.811953900252377,22.322471200385621]},"properties":{"FID":131,"name":"Islami Bank Hospital, Sheikh Mujib Rd, Chattogram","Category":"Health Facilities","Type":"Hospital","Ownership":"Private","Ward_Name":27,"Zone":1}},{"type":"Feature","id":132,"geometry":{"type":"Point","coordinates":[91.789890999769909,22.344449700393398]},"properties":{"FID":132,"name":"Saha Pharmacy, Noya Bazar, Chattogram","Category":"Health Facilities","Type":"Pharmacy","Ownership":"Informal","Ward_Name":12,"Zone":7}},{"type":"Feature","id":133,"geometry":{"type":"Point","coordinates":[91.799586599741815,22.344950499565925]},"properties":{"FID":133,"name":"M/S. Muhammad Ali Pharmacy, Eid Gha Kacha Rasta, Halishahor Road, Chattogram","Category":"Health Facilities","Type":"Pharmacy","Ownership":"Informal","Ward_Name":12,"Zone":7}},{"type":"Feature","id":134,"geometry":{"type":"Point","coordinates":[91.794902499750606,22.344583200254533]},"properties":{"FID":134,"name":"Munmun Medical Hall, 1 NO. Panir Kol, Halishahar Road, Bou bazar, Chattogram","Category":"Health Facilities","Type":"Pharmacy","Ownership":"Informal","Ward_Name":25,"Zone":7}},{"type":"Feature","id":135,"geometry":{"type":"Point","coordinates":[91.800538999775085,22.344825699746309]},"properties":{"FID":135,"name":"Modern Herbal & Homeo Center, Eidgah Kacharastar Matha, Bow Bazar, Chattogram","Category":"Health Facilities","Type":"Pharmacy","Ownership":"Informal","Ward_Name":12,"Zone":7}},{"type":"Feature","id":136,"geometry":{"type":"Point","coordinates":[91.801208500072278,22.344508499867402]},"properties":{"FID":136,"name":"National Homeo Pharmacy, Eidgah Mor Kacharasta, Chattogram","Category":"Health Facilities","Type":"Pharmacy","Ownership":"Informal","Ward_Name":25,"Zone":7}},{"type":"Feature","id":137,"geometry":{"type":"Point","coordinates":[91.799005400279043,22.341685000062739]},"properties":{"FID":137,"name":"Yeachmin Homeo Pharmacy, Edgah Baro Pukur Par, East Rampur, Halishahar, Chattogram","Category":"Health Facilities","Type":"Pharmacy","Ownership":"Informal","Ward_Name":25,"Zone":7}},{"type":"Feature","id":138,"geometry":{"type":"Point","coordinates":[91.801260700321109,22.342887499758376]},"properties":{"FID":138,"name":"Eidgah Borofkol, East Rampur, Halishahar, Borofkol, Purbo Rampur, Chattogram","Category":"Health Facilities","Type":"Pharmacy","Ownership":"Private","Ward_Name":25,"Zone":7}},{"type":"Feature","id":139,"geometry":{"type":"Point","coordinates":[91.805642200027592,22.329410899893162]},"properties":{"FID":139,"name":"Homeopathy Chamber (Dr. Masud Hossain), Halishahar Rd, Chattogram","Category":"Health Facilities","Type":"Doctor's Chamber","Ownership":"Informal","Ward_Name":24,"Zone":1}},{"type":"Feature","id":140,"geometry":{"type":"Point","coordinates":[91.81051240032707,22.332526899696688]},"properties":{"FID":140,"name":"M/s. Mahamuda Pharmacy, Halishahar Rd, Chattogram","Category":"Health Facilities","Type":"Pharmacy","Ownership":"Informal","Ward_Name":24,"Zone":1}},{"type":"Feature","id":141,"geometry":{"type":"Point","coordinates":[91.778364899920234,22.323491799606927]},"properties":{"FID":141,"name":"Chemon Ara Homeo Hall","Category":"Health Facilities","Type":"Pharmacy","Ownership":"Informal","Ward_Name":37,"Zone":2}},{"type":"Feature","id":142,"geometry":{"type":"Point","coordinates":[91.778213900151457,22.323561700312268]},"properties":{"FID":142,"name":"Chenoara Pharmacy","Category":"Health Facilities","Type":"Pharmacy","Ownership":"Informal","Ward_Name":26,"Zone":2}},{"type":"Feature","id":143,"geometry":{"type":"Point","coordinates":[91.791788599864049,22.316783699807957]},"properties":{"FID":143,"name":"CGD Railway Hospital Port, Port Colony Rd, Chattogram","Category":"Health Facilities","Type":"Hospital","Ownership":"Government","Ward_Name":37,"Zone":2}},{"type":"Feature","id":144,"geometry":{"type":"Point","coordinates":[91.787989000192283,22.307759200027135]},"properties":{"FID":144,"name":"Bandhu Pharmacy, Niscintapara, Chattogram","Category":"Health Facilities","Type":"Pharmacy","Ownership":"Informal","Ward_Name":38,"Zone":2}},{"type":"Feature","id":145,"geometry":{"type":"Point","coordinates":[91.78373309980276,22.296671599714614]},"properties":{"FID":145,"name":"M/S. Kamini Pharmacy, Abdul Mabud Showdagor Road, E.P.Z. Gate, Bandor, Chattogram","Category":"Health Facilities","Type":"Pharmacy","Ownership":"Informal","Ward_Name":38,"Zone":2}},{"type":"Feature","id":146,"geometry":{"type":"Point","coordinates":[91.783313000394685,22.29755240022314]},"properties":{"FID":146,"name":"L A pharmacy, M. A Aziz Road, Chattogram","Category":"Health Facilities","Type":"Pharmacy","Ownership":"Informal","Ward_Name":38,"Zone":2}},{"type":"Feature","id":147,"geometry":{"type":"Point","coordinates":[91.782480999798338,22.344190899790249]},"properties":{"FID":147,"name":"Dr. Badal Kanti Debnath (Charu Homoeo Pharmacy), Chuna Factory Lane, Chattogram","Category":"Health Facilities","Type":"Pharmacy","Ownership":"Informal","Ward_Name":26,"Zone":2}},{"type":"Feature","id":148,"geometry":{"type":"Point","coordinates":[91.803807799790206,22.3426436000222]},"properties":{"FID":148,"name":"MEDISAVE PATHOLOGY LAB Hospital, Dhaka Trunk Rd, Chattogram","Category":"Health Facilities","Type":"Hospital","Ownership":"Private","Ward_Name":24,"Zone":1}},{"type":"Feature","id":149,"geometry":{"type":"Point","coordinates":[91.801440900177454,22.337003900209879]},"properties":{"FID":149,"name":"Surjer Hashi Clinic, Unnamed Road, Chattogram","Category":"Health Facilities","Type":"Clinic","Ownership":"Private","Ward_Name":24,"Zone":1}},{"type":"Feature","id":150,"geometry":{"type":"Point","coordinates":[91.806002300266016,22.34167229983683]},"properties":{"FID":150,"name":"Nursing Court Kaderiya Medical Center, Dhaka Trunk Road, Chattogram","Category":"Health Facilities","Type":"Clinic","Ownership":"Private","Ward_Name":24,"Zone":1}},{"type":"Feature","id":151,"geometry":{"type":"Point","coordinates":[91.812031800427292,22.338509199839734]},"properties":{"FID":151,"name":"M/S. Kaderia Medical Pharmacy, Sk. J.M. Villa, Double Mooring, Chattogram","Category":"Health Facilities","Type":"Pharmacy","Ownership":"Informal","Ward_Name":24,"Zone":1}},{"type":"Feature","id":152,"geometry":{"type":"Point","coordinates":[91.810094899959722,22.334243799911462]},"properties":{"FID":152,"name":"M/S. The Medical Point, Sheikh Mujib Road, North Agrabad, Chattogram","Category":"Health Facilities","Type":"Pharmacy","Ownership":"Private","Ward_Name":24,"Zone":1}},{"type":"Feature","id":153,"geometry":{"type":"Point","coordinates":[91.813204000164546,22.338490100038143]},"properties":{"FID":153,"name":"Al Aksa Pharmacy, Amnat khan Tower, Dewanhat Overbridge, Dhaka Trunk Rd, Chattogram","Category":"Health Facilities","Type":"Pharmacy","Ownership":"Informal","Ward_Name":23,"Zone":1}},{"type":"Feature","id":154,"geometry":{"type":"Point","coordinates":[91.812224699610283,22.336819100321293]},"properties":{"FID":154,"name":"M/S. Al Amin Pharmacy, Dewanhat, Mistripara, Chattogram","Category":"Health Facilities","Type":"Pharmacy","Ownership":"Informal","Ward_Name":24,"Zone":1}},{"type":"Feature","id":155,"geometry":{"type":"Point","coordinates":[91.811825600271277,22.336822599583343]},"properties":{"FID":155,"name":"M/s. Jononi Pharmacy, Sheikh Mujib Sarok, Mistri Para, Dewanhat, Chattogram","Category":"Health Facilities","Type":"Pharmacy","Ownership":"Informal","Ward_Name":24,"Zone":1}},{"type":"Feature","id":156,"geometry":{"type":"Point","coordinates":[91.813601600333641,22.334132399990324]},"properties":{"FID":156,"name":"M/S Islamiya Pharmacy, Sholtan Colony, Agrabad, Near Bonolata Lane, Chattogram","Category":"Health Facilities","Type":"Pharmacy","Ownership":"Informal","Ward_Name":23,"Zone":1}},{"type":"Feature","id":157,"geometry":{"type":"Point","coordinates":[91.814265100354135,22.334415699924648]},"properties":{"FID":157,"name":"M/s Pritam Medical Hall, Sultan Kolony Rd, Chattogram","Category":"Health Facilities","Type":"Pharmacy","Ownership":"Informal","Ward_Name":23,"Zone":1}},{"type":"Feature","id":158,"geometry":{"type":"Point","coordinates":[91.81486479977076,22.335682400422513]},"properties":{"FID":158,"name":"M/S. Muradnagar Pharmacy,1 No., Supariwala Goli, Dewanhat, Chattogram","Category":"Health Facilities","Type":"Pharmacy","Ownership":"Informal","Ward_Name":23,"Zone":1}},{"type":"Feature","id":159,"geometry":{"type":"Point","coordinates":[91.81652250031317,22.333227799823135]},"properties":{"FID":159,"name":"M/s. National Pharmacy, Air Ali Super Market, Pathantuli Road, Nazirpul, Chaumohoni, Chattogram","Category":"Health Facilities","Type":"Pharmacy","Ownership":"Informal","Ward_Name":23,"Zone":1}},{"type":"Feature","id":160,"geometry":{"type":"Point","coordinates":[91.816776000312245,22.333389700274495]},"properties":{"FID":160,"name":"Midpoint Hospital and Maternity Center Ltd., Midpoint Hospital, Pathantuli Rd, Chattogram","Category":"Health Facilities","Type":"Hospital","Ownership":"Private","Ward_Name":23,"Zone":1}},{"type":"Feature","id":161,"geometry":{"type":"Point","coordinates":[91.816897200145718,22.33332290043154]},"properties":{"FID":161,"name":"M/s. Prity Pharmacy, Pathantuli Rd, Chattogram","Category":"Health Facilities","Type":"Pharmacy","Ownership":"Informal","Ward_Name":23,"Zone":1}},{"type":"Feature","id":162,"geometry":{"type":"Point","coordinates":[91.813835700157483,22.332601400434328]},"properties":{"FID":162,"name":"Raju medical hall, Pathantuli Nazrul Bhandari Rd, Kapuria Para, Chowmuni Agrabad, Chattogram","Category":"Health Facilities","Type":"Pharmacy","Ownership":"Informal","Ward_Name":23,"Zone":1}},{"type":"Feature","id":163,"geometry":{"type":"Point","coordinates":[91.812774500143121,22.333677700065834]},"properties":{"FID":163,"name":"Macca Pharmacy, Sheikh Mujib Road, Choumohoni, Agrabad, Chattogram","Category":"Health Facilities","Type":"Pharmacy","Ownership":"Informal","Ward_Name":23,"Zone":1}},{"type":"Feature","id":164,"geometry":{"type":"Point","coordinates":[91.814005000230622,22.320754099622036]},"properties":{"FID":164,"name":"Maa Pharmacy, Damam Petrol Pump, Rashid Building, Strand Road, Chattogram","Category":"Health Facilities","Type":"Pharmacy","Ownership":"Informal","Ward_Name":28,"Zone":1}},{"type":"Feature","id":165,"geometry":{"type":"Point","coordinates":[91.814257299634733,22.327106499565332]},"properties":{"FID":165,"name":"Bumrungrad International Hospital Referral Office-Chattagram, Agrabad C/A, Chattogram","Category":"Health Facilities","Type":"Hospital","Ownership":"Private","Ward_Name":28,"Zone":1}},{"type":"Feature","id":166,"geometry":{"type":"Point","coordinates":[91.81276510042909,22.332307199817478]},"properties":{"FID":166,"name":"Nur & Sons Pharmacy, Sheikh Mujib Road, Chowmuhoni, Agrabad, Chattogram","Category":"Health Facilities","Type":"Pharmacy","Ownership":"Informal","Ward_Name":28,"Zone":1}},{"type":"Feature","id":167,"geometry":{"type":"Point","coordinates":[91.817313499918157,22.332986099828702]},"properties":{"FID":167,"name":"Medico Pharmacy, Saleh Ahmed Chairman Lane Road, Pathantuli Road, Matiar Pool, Najirpol, Chattogram","Category":"Health Facilities","Type":"Pharmacy","Ownership":"Informal","Ward_Name":28,"Zone":1}},{"type":"Feature","id":168,"geometry":{"type":"Point","coordinates":[91.821448099750057,22.331349699728889]},"properties":{"FID":168,"name":"MS. Satota Pharmacy, East Mother Bari, 1No Goli, Chattogram","Category":"Health Facilities","Type":"Pharmacy","Ownership":"Informal","Ward_Name":29,"Zone":5}},{"type":"Feature","id":169,"geometry":{"type":"Point","coordinates":[91.820428499675586,22.331003399587246]},"properties":{"FID":169,"name":"C R Pharmacy, East Mother Bari, Commerce College Road, Motiarpool, Chattogram","Category":"Health Facilities","Type":"Pharmacy","Ownership":"Informal","Ward_Name":29,"Zone":5}},{"type":"Feature","id":170,"geometry":{"type":"Point","coordinates":[91.818209999891621,22.328411000367396]},"properties":{"FID":170,"name":"Allahr Dan Pharmacy, Bar Quater, Mugoltoli Bazar, Agrabad, Chattogram","Category":"Health Facilities","Type":"Pharmacy","Ownership":"Informal","Ward_Name":28,"Zone":1}},{"type":"Feature","id":171,"geometry":{"type":"Point","coordinates":[91.819468700020536,22.328987800346738]},"properties":{"FID":171,"name":"Afif Medical Centre, Jugi Chand Mosjid Ln, Chattogram","Category":"Health Facilities","Type":"Pharmacy","Ownership":"Private","Ward_Name":28,"Zone":1}},{"type":"Feature","id":172,"geometry":{"type":"Point","coordinates":[91.817252099604787,22.32742919969786]},"properties":{"FID":172,"name":"Konika Homeo Clinic, Commerce College Road, Chattogram","Category":"Health Facilities","Type":"Clinic","Ownership":"Private","Ward_Name":28,"Zone":1}},{"type":"Feature","id":173,"geometry":{"type":"Point","coordinates":[91.821744699758142,22.32885569983074]},"properties":{"FID":173,"name":"Nizampur Medical Hall, Dhaka Trunk Rd, Chattogram","Category":"Health Facilities","Type":"Pharmacy","Ownership":"Informal","Ward_Name":29,"Zone":5}},{"type":"Feature","id":174,"geometry":{"type":"Point","coordinates":[91.819383000025482,22.327652399738497]},"properties":{"FID":174,"name":"M/S. Rahomania Pharmacy, Jugi Chand Mosjid Ln, Chattogram","Category":"Health Facilities","Type":"Pharmacy","Ownership":"Informal","Ward_Name":28,"Zone":1}},{"type":"Feature","id":175,"geometry":{"type":"Point","coordinates":[91.799818499823971,22.315934399852722]},"properties":{"FID":175,"name":"M/S. Janosheba Pharmacy, Rahaman Bhaban, P.C Road, Neemtola, Bandar, Chattogram","Category":"Health Facilities","Type":"Pharmacy","Ownership":"Informal","Ward_Name":36,"Zone":1}},{"type":"Feature","id":176,"geometry":{"type":"Point","coordinates":[91.799353599788844,22.316831700222849]},"properties":{"FID":176,"name":"Shatkania Majidia pharmacy, Port Connecting Rd, Chattogram","Category":"Health Facilities","Type":"Pharmacy","Ownership":"Informal","Ward_Name":36,"Zone":1}},{"type":"Feature","id":177,"geometry":{"type":"Point","coordinates":[91.796602099707172,22.313760000123978]},"properties":{"FID":177,"name":"Chittagong Port Hospital Colony, Port Hospital, Chattogram","Category":"Health Facilities","Type":"Hospital","Ownership":"NGO/Institutional","Ward_Name":36,"Zone":1}},{"type":"Feature","id":178,"geometry":{"type":"Point","coordinates":[91.79574830044379,22.314290399582319]},"properties":{"FID":178,"name":"Radiology unit port hospital, Port Hospital, Port Colony Rd, Chattogram","Category":"Health Facilities","Type":"Hospital","Ownership":"NGO/Institutional","Ward_Name":36,"Zone":1}},{"type":"Feature","id":179,"geometry":{"type":"Point","coordinates":[91.795513099849757,22.313642699750858]},"properties":{"FID":179,"name":"Bangladesh Railway Hospital, Port Colony Rd, Chattogram","Category":"Health Facilities","Type":"Hospital","Ownership":"Government","Ward_Name":38,"Zone":2}},{"type":"Feature","id":180,"geometry":{"type":"Point","coordinates":[91.783733900199366,22.287489900238768]},"properties":{"FID":180,"name":"ICDDR, B Tuberculosis Diagnosis and Treatment Centre, Shop-06, Shardar Plaza, Bandartila, Chattogram","Category":"Health Facilities","Type":"Hospital","Ownership":"NGO/Institutional","Ward_Name":39,"Zone":2}},{"type":"Feature","id":181,"geometry":{"type":"Point","coordinates":[91.784175700248454,22.286225400381966]},"properties":{"FID":181,"name":"Peoples Pharmacy, Shah Plaza Bandartila, Chattogram","Category":"Health Facilities","Type":"Pharmacy","Ownership":"Informal","Ward_Name":39,"Zone":2}},{"type":"Feature","id":182,"geometry":{"type":"Point","coordinates":[91.784150000322313,22.286014899667919]},"properties":{"FID":182,"name":"Manju Homeo is Bandartila, Sarangs Mansion, Dakshin Halishahar, Bandertilla, Chattogram","Category":"Health Facilities","Type":"Pharmacy","Ownership":"Informal","Ward_Name":39,"Zone":2}},{"type":"Feature","id":183,"geometry":{"type":"Point","coordinates":[91.783898500415546,22.283423499594903]},"properties":{"FID":183,"name":"S.R Pharmacy, Momota Goli, Chattogram","Category":"Health Facilities","Type":"Pharmacy","Ownership":"NGO/Institutional","Ward_Name":39,"Zone":2}},{"type":"Feature","id":184,"geometry":{"type":"Point","coordinates":[91.783801299890115,22.2828104002798]},"properties":{"FID":184,"name":"Janani Pharmacy, Sailors Colony 2 Road, Chittagong","Category":"Health Facilities","Type":"Pharmacy","Ownership":"Informal","Ward_Name":39,"Zone":2}},{"type":"Feature","id":185,"geometry":{"type":"Point","coordinates":[91.783215000372024,22.282779899772606]},"properties":{"FID":185,"name":"M/s Sagar Pharmacy, Shop no. 32, Naval welfare foundation market, Chattogram","Category":"Health Facilities","Type":"Pharmacy","Ownership":"Informal","Ward_Name":39,"Zone":2}},{"type":"Feature","id":186,"geometry":{"type":"Point","coordinates":[91.783323900177891,22.286525100353174]},"properties":{"FID":186,"name":"M/s. Medicine Corner, Shop No-04, Al-Madina Super Market, Shahid Nurjaman Road, Bandartila, Chattogr","Category":"Health Facilities","Type":"Pharmacy","Ownership":"Private","Ward_Name":39,"Zone":2}},{"type":"Feature","id":187,"geometry":{"type":"Point","coordinates":[91.784047500092129,22.286663399896042]},"properties":{"FID":187,"name":"City Corporation Bandartila Matrisadan Hospital, Ward No 39, Chattogram","Category":"Health Facilities","Type":"Hospital","Ownership":"CCC","Ward_Name":39,"Zone":2}},{"type":"Feature","id":188,"geometry":{"type":"Point","coordinates":[91.782071300150449,22.286451900035217]},"properties":{"FID":188,"name":"Babar Doya Pharmacy, Shahid Nurjaman Rd, Chattogram","Category":"Health Facilities","Type":"Pharmacy","Ownership":"Informal","Ward_Name":39,"Zone":2}},{"type":"Feature","id":189,"geometry":{"type":"Point","coordinates":[91.782116000053406,22.284169999845687]},"properties":{"FID":189,"name":"Bismillah Homeo Hall, BEPZA College Rd, Chattogram","Category":"Health Facilities","Type":"Pharmacy","Ownership":"Informal","Ward_Name":39,"Zone":2}},{"type":"Feature","id":190,"geometry":{"type":"Point","coordinates":[91.779606699989245,22.283391300268363]},"properties":{"FID":190,"name":"CMH Chittagong Hospital, CEPZ, Chattogram","Category":"Health Facilities","Type":"Hospital","Ownership":"Government","Ward_Name":39,"Zone":2}},{"type":"Feature","id":191,"geometry":{"type":"Point","coordinates":[91.780454499875304,22.281292900447056]},"properties":{"FID":191,"name":"A.D. Pharmacy, Madraji Shah Road, Chattogram","Category":"Health Facilities","Type":"Pharmacy","Ownership":"Informal","Ward_Name":39,"Zone":2}},{"type":"Feature","id":192,"geometry":{"type":"Point","coordinates":[91.783253600173566,22.28179099985482]},"properties":{"FID":192,"name":"Fatema Pharmecy, Madrgi, Shah Road, Chattogram","Category":"Health Facilities","Type":"Pharmacy","Ownership":"Private","Ward_Name":39,"Zone":2}},{"type":"Feature","id":193,"geometry":{"type":"Point","coordinates":[91.774115700379355,22.276979900302194]},"properties":{"FID":193,"name":"Mayer Dowa Pharmacy, Humayun Kabir Rd, Humayun Bagh, Chattogram","Category":"Health Facilities","Type":"Pharmacy","Ownership":"Informal","Ward_Name":40,"Zone":2}},{"type":"Feature","id":194,"geometry":{"type":"Point","coordinates":[91.777796700157637,22.276368900004798]},"properties":{"FID":194,"name":"R S pharmacy, Akmol Alli road pocket gate C P Z Bondortila, Chattogram","Category":"Health Facilities","Type":"Pharmacy","Ownership":"Informal","Ward_Name":40,"Zone":2}},{"type":"Feature","id":195,"geometry":{"type":"Point","coordinates":[91.7849488995721,22.280162600123958]},"properties":{"FID":195,"name":"Ma Pharmacy, Akmal Ali Road South Halishahar EPZ, Chattogram","Category":"Health Facilities","Type":"Pharmacy","Ownership":"Informal","Ward_Name":39,"Zone":2}},{"type":"Feature","id":196,"geometry":{"type":"Point","coordinates":[91.786149300250088,22.274709700292476]},"properties":{"FID":196,"name":"City Pharmacy, Hawker Goli, Chattogram","Category":"Health Facilities","Type":"Pharmacy","Ownership":"Informal","Ward_Name":40,"Zone":2}},{"type":"Feature","id":197,"geometry":{"type":"Point","coordinates":[91.786001899568078,22.276372900189244]},"properties":{"FID":197,"name":"City General Hospital and Diagnostic Center, Kazi Goli, Chattogram","Category":"Health Facilities","Type":"Hospital","Ownership":"Government","Ward_Name":40,"Zone":2}},{"type":"Feature","id":198,"geometry":{"type":"Point","coordinates":[91.782238000283542,22.276326999691321]},"properties":{"FID":198,"name":"New Popular Medico, Rahman Mension, kazir golir shesh matha, Kazi Goli, Chattogram","Category":"Health Facilities","Type":"Pharmacy","Ownership":"Informal","Ward_Name":40,"Zone":2}},{"type":"Feature","id":199,"geometry":{"type":"Point","coordinates":[91.782284300080448,22.273862600078985]},"properties":{"FID":199,"name":"Bokul Pharmacy, S Alam B Alam Rd, Chattogram","Category":"Health Facilities","Type":"Pharmacy","Ownership":"Informal","Ward_Name":40,"Zone":2}},{"type":"Feature","id":200,"geometry":{"type":"Point","coordinates":[91.780301300364783,22.267182999795637]},"properties":{"FID":200,"name":"M.T.M SHADHIN Pharmacy, Housing Colony Rd, Chattogram","Category":"Health Facilities","Type":"Pharmacy","Ownership":"Informal","Ward_Name":40,"Zone":2}},{"type":"Feature","id":201,"geometry":{"type":"Point","coordinates":[91.783369299753417,22.268604899896275]},"properties":{"FID":201,"name":"Hasan Medical Hall, Housing Colony Rd, Chattogram","Category":"Health Facilities","Type":"Pharmacy","Ownership":"Informal","Ward_Name":40,"Zone":2}},{"type":"Feature","id":202,"geometry":{"type":"Point","coordinates":[91.784320000068021,22.268742200292365]},"properties":{"FID":202,"name":"Darber Pharmacy, Housing Colony Rd, Chattogram","Category":"Health Facilities","Type":"Pharmacy","Ownership":"Informal","Ward_Name":40,"Zone":2}},{"type":"Feature","id":203,"geometry":{"type":"Point","coordinates":[91.783917700041854,22.268511300256364]},"properties":{"FID":203,"name":"Dental care point-Dentist, Housing Colony Rd, Chattogram","Category":"Health Facilities","Type":"Dentist","Ownership":"Informal","Ward_Name":40,"Zone":2}},{"type":"Feature","id":204,"geometry":{"type":"Point","coordinates":[91.788605099645679,22.266970999911791]},"properties":{"FID":204,"name":"M/S Fatema Medical Hall,  M. A Aziz Rd, Chattogram","Category":"Health Facilities","Type":"Pharmacy","Ownership":"Informal","Ward_Name":40,"Zone":2}},{"type":"Feature","id":205,"geometry":{"type":"Point","coordinates":[91.782917199769031,22.268493400150362]},"properties":{"FID":205,"name":"Populr pharmacy, Housing Colony Rd, Chattogram","Category":"Health Facilities","Type":"Pharmacy","Ownership":"Informal","Ward_Name":40,"Zone":2}},{"type":"Feature","id":206,"geometry":{"type":"Point","coordinates":[91.781723300290139,22.267967099801865]},"properties":{"FID":206,"name":"Mojumder Homeo Hall ,Hazi Makbul Ahmed Society Road, Khejurtola, Chattogram","Category":"Health Facilities","Type":"Pharmacy","Ownership":"Informal","Ward_Name":40,"Zone":2}},{"type":"Feature","id":207,"geometry":{"type":"Point","coordinates":[91.781941699749723,22.268589900103848]},"properties":{"FID":207,"name":"Unique Homeo Hall, Housing Colony Rd, Chattogram","Category":"Health Facilities","Type":"Pharmacy","Ownership":"Informal","Ward_Name":40,"Zone":2}},{"type":"Feature","id":208,"geometry":{"type":"Point","coordinates":[91.78629739970529,22.25861310011453]},"properties":{"FID":208,"name":"Patenga model pharma, Moslimabad more katgor, Chattogram","Category":"Health Facilities","Type":"Pharmacy","Ownership":"Private","Ward_Name":40,"Zone":2}},{"type":"Feature","id":209,"geometry":{"type":"Point","coordinates":[91.781220199752454,22.365122200429255]},"properties":{"FID":209,"name":"M.D.S Medicine Corner Pharmacy, Dhaka Trunk Road, Chattogram","Category":"Health Facilities","Type":"Pharmacy","Ownership":"Informal","Ward_Name":10,"Zone":7}},{"type":"Feature","id":210,"geometry":{"type":"Point","coordinates":[91.802466499629304,22.361272799899837]},"properties":{"FID":210,"name":"Chittagong Diabetic General Hospital, Zakir Hossain Road, Khulsi, Chattogram","Category":"Health Facilities","Type":"Hospital","Ownership":"Government","Ward_Name":13,"Zone":7}},{"type":"Feature","id":211,"geometry":{"type":"Point","coordinates":[91.778699999905143,22.368140700233198]},"properties":{"FID":211,"name":"Bismillah Model Pharmacy & Dental Care, Dhaka - Chittagong Hwy, Chattogram","Category":"Health Facilities","Type":"Pharmacy","Ownership":"Informal","Ward_Name":10,"Zone":7}},{"type":"Feature","id":212,"geometry":{"type":"Point","coordinates":[91.801970400313792,22.361246000102881]},"properties":{"FID":212,"name":"SAHIC Sub-Center and Integrated Pre-School for Hearing Impaired Children,Zakir Hossain Rd,Chattogram","Category":"Health Facilities","Type":"Hospital","Ownership":"NGO/Institutional","Ward_Name":13,"Zone":7}},{"type":"Feature","id":213,"geometry":{"type":"Point","coordinates":[91.777665400038245,22.369328200136351]},"properties":{"FID":213,"name":"Bishwas Homeo Clinic, Cornel Hat, Akbar Shah, D.T. Road, Chattogram","Category":"Health Facilities","Type":"Pharmacy","Ownership":"Private","Ward_Name":10,"Zone":7}},{"type":"Feature","id":214,"geometry":{"type":"Point","coordinates":[91.816022700287419,22.361692800382457]},"properties":{"FID":214,"name":"Lios eye hospital gate, Zakir Hossain Rd, Chattogram","Category":"Health Facilities","Type":"Hospital","Ownership":"Private","Ward_Name":13,"Zone":7}},{"type":"Feature","id":215,"geometry":{"type":"Point","coordinates":[91.818401499729475,22.362002599740208]},"properties":{"FID":215,"name":"My CareBD Pharmacy, Commissioner goli, Zakir Hossain Rd, Chattogram","Category":"Health Facilities","Type":"Pharmacy","Ownership":"Informal","Ward_Name":8,"Zone":4}},{"type":"Feature","id":216,"geometry":{"type":"Point","coordinates":[91.819094900409368,22.362765099829517]},"properties":{"FID":216,"name":"Chowdhury Pharmacy, Md. Zaman Chowdhury Rd, Chattogram","Category":"Health Facilities","Type":"Pharmacy","Ownership":"Informal","Ward_Name":8,"Zone":4}},{"type":"Feature","id":217,"geometry":{"type":"Point","coordinates":[91.816408000428908,22.362379199840234]},"properties":{"FID":217,"name":"Aziz Pharmacy, Shahi Jamme Mosjid Market, Women College Mor, East Nasirabad, Chattogram","Category":"Health Facilities","Type":"Pharmacy","Ownership":"Informal","Ward_Name":8,"Zone":4}},{"type":"Feature","id":218,"geometry":{"type":"Point","coordinates":[91.813673699881406,22.361578900346046]},"properties":{"FID":218,"name":"Drug Mart pharmacy, S Khulshi Rd, Chattogram","Category":"Health Facilities","Type":"Pharmacy","Ownership":"Informal","Ward_Name":8,"Zone":4}},{"type":"Feature","id":219,"geometry":{"type":"Point","coordinates":[91.775592200120002,22.371960100278443]},"properties":{"FID":219,"name":"Anik Medical Hall, Dhaka - Chittagong Hwy, Chattogram","Category":"Health Facilities","Type":"Pharmacy","Ownership":"Informal","Ward_Name":10,"Zone":7}},{"type":"Feature","id":220,"geometry":{"type":"Point","coordinates":[91.775634999755482,22.37169979960612]},"properties":{"FID":220,"name":"Chowdhury Drug House, Cornelhat, North Katli, Akborshah, Chattogram","Category":"Health Facilities","Type":"Pharmacy","Ownership":"Informal","Ward_Name":10,"Zone":7}},{"type":"Feature","id":221,"geometry":{"type":"Point","coordinates":[91.806547200393027,22.386262699563986]},"properties":{"FID":221,"name":"Shajinaz Hospital Limited, Arefin Nagar, Bayezid Link Road, Bayazid Bostami Rd, Chattogram","Category":"Health Facilities","Type":"Hospital","Ownership":"Private","Ward_Name":2,"Zone":6}},{"type":"Feature","id":222,"geometry":{"type":"Point","coordinates":[91.820260199648544,22.394872600190411]},"properties":{"FID":222,"name":"Diabetic Hospital Oxygen Branch, Oxygen Mor, Hathazari Rd, Chattogram","Category":"Health Facilities","Type":"Hospital","Ownership":"Private","Ward_Name":2,"Zone":6}},{"type":"Feature","id":223,"geometry":{"type":"Point","coordinates":[91.820209799842473,22.396202999668731]},"properties":{"FID":223,"name":"S.A Shanto Pharmacy, Mashjid-e-Tayeba Complex, Wapda Gate, Oxygen, Chattogram","Category":"Health Facilities","Type":"Pharmacy","Ownership":"Informal","Ward_Name":2,"Zone":6}},{"type":"Feature","id":224,"geometry":{"type":"Point","coordinates":[91.817796300059285,22.408071000176562]},"properties":{"FID":224,"name":"M/S. Chowdhury Pharmacy, Jilana Market, Baluchura, Hathazare Road, Chattogram","Category":"Health Facilities","Type":"Pharmacy","Ownership":"Informal","Ward_Name":2,"Zone":6}},{"type":"Feature","id":225,"geometry":{"type":"Point","coordinates":[91.819871300420232,22.421287099719905]},"properties":{"FID":225,"name":"Doctor Beni Madhob Shorma, Doctor, Chattogram - Rangamati-Khagrachari Highway, Chattogram","Category":"Health Facilities","Type":"Doctor's Chamber","Ownership":"Informal","Ward_Name":1,"Zone":6}},{"type":"Feature","id":226,"geometry":{"type":"Point","coordinates":[91.81873299972824,22.429215200021531]},"properties":{"FID":226,"name":"Best Janani pharmacy in chittagong, AL saleh super market, Chittagong - Rangamati Road, Chattogram","Category":"Health Facilities","Type":"Pharmacy","Ownership":"Informal","Ward_Name":1,"Zone":6}},{"type":"Feature","id":227,"geometry":{"type":"Point","coordinates":[91.820103199603011,22.435069899856046]},"properties":{"FID":227,"name":"Miyaji Harvanga Clinic, Chattogram - Rangamati-Khagrachari Highway, Chattogram","Category":"Health Facilities","Type":"Clinic","Ownership":"Private","Ward_Name":1,"Zone":6}},{"type":"Feature","id":228,"geometry":{"type":"Point","coordinates":[91.818325599646755,22.44539430040669]},"properties":{"FID":228,"name":"New Janata Pharmacy, Station Road, Chowdhury Hat, Hathazari, Foteyabad, Chattogram","Category":"Health Facilities","Type":"Pharmacy","Ownership":"Informal","Ward_Name":1,"Zone":6}},{"type":"Feature","id":229,"geometry":{"type":"Point","coordinates":[91.818057800427198,22.445232200305838]},"properties":{"FID":229,"name":"M/s New Madarsha Pharmacy, Chattogram - Rangamati-Khagrachari Highway, Chattogram","Category":"Health Facilities","Type":"Pharmacy","Ownership":"Informal","Ward_Name":1,"Zone":6}},{"type":"Feature","id":230,"geometry":{"type":"Point","coordinates":[91.819113000164862,22.444623999597979]},"properties":{"FID":230,"name":"Fatehabad Clinic & Diagnostic Centre, Chittagong - Rangamati-Khagrachhari Rd, Chattogram","Category":"Health Facilities","Type":"Hospital","Ownership":"Private","Ward_Name":1,"Zone":6}},{"type":"Feature","id":231,"geometry":{"type":"Point","coordinates":[91.819107599736014,22.444835000335047]},"properties":{"FID":231,"name":"Familiar Medicine Center, Hathazari Road, Fatehabad, Chowdhury Hat, Chattogram","Category":"Health Facilities","Type":"Pharmacy","Ownership":"Private","Ward_Name":1,"Zone":6}},{"type":"Feature","id":232,"geometry":{"type":"Point","coordinates":[91.818315699909704,22.407600599887814]},"properties":{"FID":232,"name":"M/S. Islam Pharmacy, Baluchara Main road, Rangamati-Khagrachari Highway, Chattogram","Category":"Health Facilities","Type":"Pharmacy","Ownership":"Informal","Ward_Name":2,"Zone":6}},{"type":"Feature","id":233,"geometry":{"type":"Point","coordinates":[91.819253600173568,22.402380899658851]},"properties":{"FID":233,"name":"M/s Iskandar Medical Hall, Pharmacy, Chittagong - Rangamati Khagrachhari Rd, Chattogram","Category":"Health Facilities","Type":"Pharmacy","Ownership":"Informal","Ward_Name":2,"Zone":6}},{"type":"Feature","id":234,"geometry":{"type":"Point","coordinates":[91.819645299890738,22.399911999838992]},"properties":{"FID":234,"name":"S Pharma, Rangamati Khagrachhari Rd, Chattogram","Category":"Health Facilities","Type":"Pharmacy","Ownership":"Private","Ward_Name":2,"Zone":6}},{"type":"Feature","id":235,"geometry":{"type":"Point","coordinates":[91.821064299677744,22.394816200107584]},"properties":{"FID":235,"name":"Chottogram Daiabetic General Hospital, Oxyzen, Rangamati-Khagrachari Highway, Chattogram","Category":"Health Facilities","Type":"Hospital","Ownership":"Government","Ward_Name":2,"Zone":6}},{"type":"Feature","id":236,"geometry":{"type":"Point","coordinates":[91.791848900306547,22.25886839965699]},"properties":{"FID":236,"name":"Chamber Of Dr. Mozammel Hossain, Kathgor Bazar, Chattogram","Category":"Health Facilities","Type":"Doctor's Chamber","Ownership":"Informal","Ward_Name":40,"Zone":2}},{"type":"Feature","id":237,"geometry":{"type":"Point","coordinates":[91.822055699710859,22.331273400347186]},"properties":{"FID":237,"name":"Mintu Pharmacy, Majhirghat Road, Chattogram","Category":"Health Facilities","Type":"Pharmacy","Ownership":"Informal","Ward_Name":29,"Zone":5}},{"type":"Feature","id":238,"geometry":{"type":"Point","coordinates":[91.823431999687102,22.395356400377636]},"properties":{"FID":238,"name":"Hafsa Hanif Medicine, Bangabondhu Avenue Road, Chattogram","Category":"Health Facilities","Type":"Pharmacy","Ownership":"Private","Ward_Name":3,"Zone":6}},{"type":"Feature","id":239,"geometry":{"type":"Point","coordinates":[91.824464200162765,22.396024399706334]},"properties":{"FID":239,"name":"Medicare Hospital, Bongobondhu Avenue, Oxygen - Kuwaish Rd, Chattogram","Category":"Health Facilities","Type":"Hospital","Ownership":"Private","Ward_Name":3,"Zone":6}},{"type":"Feature","id":240,"geometry":{"type":"Point","coordinates":[91.824854499635535,22.396103399752121]},"properties":{"FID":240,"name":"M/S. Ma Medical Hall, angabondhu Avenue, Kuwaish Road, Oxygen, Bayejid, Chattogram","Category":"Health Facilities","Type":"Pharmacy","Ownership":"Informal","Ward_Name":3,"Zone":6}},{"type":"Feature","id":241,"geometry":{"type":"Point","coordinates":[91.823779600248429,22.329841300135968]},"properties":{"FID":241,"name":"S. D. Pharmacy, Majhirghat Road, Chattogram","Category":"Health Facilities","Type":"Pharmacy","Ownership":"Informal","Ward_Name":29,"Zone":5}},{"type":"Feature","id":242,"geometry":{"type":"Point","coordinates":[91.82559849977099,22.329836299905367]},"properties":{"FID":242,"name":"Ghosh Pharmacy, Kamal Gate Rd, Chattogram","Category":"Health Facilities","Type":"Pharmacy","Ownership":"Informal","Ward_Name":30,"Zone":5}},{"type":"Feature","id":243,"geometry":{"type":"Point","coordinates":[91.823770199635078,22.330668900349508]},"properties":{"FID":243,"name":"Siraj Medico, Majhirghat Road, Chattogram","Category":"Health Facilities","Type":"Pharmacy","Ownership":"Informal","Ward_Name":30,"Zone":5}},{"type":"Feature","id":244,"geometry":{"type":"Point","coordinates":[91.834658199916078,22.330638399842314]},"properties":{"FID":244,"name":"M/s Purbasha Pharmacy, Alkaran Road, Kotowali, Chattogram","Category":"Health Facilities","Type":"Pharmacy","Ownership":"Informal","Ward_Name":31,"Zone":5}},{"type":"Feature","id":245,"geometry":{"type":"Point","coordinates":[91.836425900135225,22.330080900213432]},"properties":{"FID":245,"name":"AB Healthcare & Medicine Shop, Kazi Nazrul Islam Rd, Chattogram","Category":"Health Facilities","Type":"Pharmacy","Ownership":"Private","Ward_Name":33,"Zone":5}},{"type":"Feature","id":246,"geometry":{"type":"Point","coordinates":[91.836852099644716,22.329215399870861]},"properties":{"FID":246,"name":"Aganee Medical Hall, Kotwali, Chattogram","Category":"Health Facilities","Type":"Pharmacy","Ownership":"Informal","Ward_Name":33,"Zone":5}},{"type":"Feature","id":247,"geometry":{"type":"Point","coordinates":[91.831879400014373,22.332038799850807]},"properties":{"FID":247,"name":"Sadhona Osodhaloy Ltd. Dhaka, Sadarghat Rd, Chattogram","Category":"Health Facilities","Type":"Pharmacy","Ownership":"Private","Ward_Name":30,"Zone":5}},{"type":"Feature","id":248,"geometry":{"type":"Point","coordinates":[91.827669499947547,22.331681400276466]},"properties":{"FID":248,"name":"Lata Pharmacy, N Nalapara Rd, Chattogram","Category":"Health Facilities","Type":"Pharmacy","Ownership":"Informal","Ward_Name":30,"Zone":5}},{"type":"Feature","id":249,"geometry":{"type":"Point","coordinates":[91.825879699788345,22.330245799903821]},"properties":{"FID":249,"name":"N. M. Pharmacy, Kamal Gate Road, Kamal Gate, East Madarbari, Nalapara, Chattogram","Category":"Health Facilities","Type":"Pharmacy","Ownership":"Informal","Ward_Name":30,"Zone":5}},{"type":"Feature","id":250,"geometry":{"type":"Point","coordinates":[91.831642300052181,22.331746700050189]},"properties":{"FID":250,"name":"M/S. Sodor Medico, Kali Barir Mor, Sodorghat, Chattogram","Category":"Health Facilities","Type":"Pharmacy","Ownership":"Informal","Ward_Name":30,"Zone":5}},{"type":"Feature","id":251,"geometry":{"type":"Point","coordinates":[91.826686100283382,22.329421799676368]},"properties":{"FID":251,"name":"Arkid Medicine Center, Noshu Malum Lane, East Mother Bari, Chattogram","Category":"Health Facilities","Type":"Pharmacy","Ownership":"Private","Ward_Name":30,"Zone":5}},{"type":"Feature","id":252,"geometry":{"type":"Point","coordinates":[91.831090399602317,22.331641699704733]},"properties":{"FID":252,"name":"Noren Musical House, Uttor Nalapara, Lane No.1, Sadarghat Road. Kali Barir Mor, Chattogram","Category":"Health Facilities","Type":"Pharmacy","Ownership":"Private","Ward_Name":30,"Zone":5}},{"type":"Feature","id":253,"geometry":{"type":"Point","coordinates":[91.830913299709096,22.329138599566761]},"properties":{"FID":253,"name":"Mesarso orobindo parmecy, Sadarghat Rd, Chattogram","Category":"Health Facilities","Type":"Pharmacy","Ownership":"Private","Ward_Name":30,"Zone":5}},{"type":"Feature","id":254,"geometry":{"type":"Point","coordinates":[91.830754799594388,22.329006199576497]},"properties":{"FID":254,"name":"Promila Homeo Pharmacy, Hazi Market, Sadarghat Road, (Ground Floor), Chattogram","Category":"Health Facilities","Type":"Pharmacy","Ownership":"Informal","Ward_Name":30,"Zone":5}},{"type":"Feature","id":255,"geometry":{"type":"Point","coordinates":[91.826717699762071,22.326722400018809]},"properties":{"FID":255,"name":"Janopriyo Medical Hall, Haji Noshu Malum Lane, East Madarbari, Sadarghat Thana, Chattogram","Category":"Health Facilities","Type":"Pharmacy","Ownership":"Informal","Ward_Name":30,"Zone":5}},{"type":"Feature","id":256,"geometry":{"type":"Point","coordinates":[91.825879699788345,22.329669400122782]},"properties":{"FID":256,"name":"New Shopna Medical Hall, Kamal Gate Rd, Chattogram","Category":"Health Facilities","Type":"Pharmacy","Ownership":"Informal","Ward_Name":30,"Zone":5}},{"type":"Feature","id":257,"geometry":{"type":"Point","coordinates":[91.831268299892201,22.330891899841333]},"properties":{"FID":257,"name":"Starmass International Business Consultants, Sadat Mansion, Sadarghat Rd, Chattogram","Category":"Health Facilities","Type":"Pharmacy","Ownership":"Private","Ward_Name":30,"Zone":5}},{"type":"Feature","id":258,"geometry":{"type":"Point","coordinates":[91.831125400317035,22.330736999712826]},"properties":{"FID":258,"name":"Dr lalit kumar dutta house Hospital, Strand Road, Chattogram","Category":"Health Facilities","Type":"Hospital","Ownership":"Private","Ward_Name":30,"Zone":5}},{"type":"Feature","id":259,"geometry":{"type":"Point","coordinates":[91.827912000338586,22.331656499847668]},"properties":{"FID":259,"name":"Lili Homeo Hall, North Nala Para Road, Chattogram","Category":"Health Facilities","Type":"Pharmacy","Ownership":"Informal","Ward_Name":30,"Zone":5}},{"type":"Feature","id":260,"geometry":{"type":"Point","coordinates":[91.829005299854771,22.258581800110051]},"properties":{"FID":260,"name":"Maa Medico Pharmacy, Airport Road, Biman Bandar, Patenga, Potenga Rd, Chattogram","Category":"Health Facilities","Type":"Pharmacy","Ownership":"Informal","Ward_Name":41,"Zone":2}},{"type":"Feature","id":261,"geometry":{"type":"Point","coordinates":[91.828994200422073,22.257966000130864]},"properties":{"FID":261,"name":"S I Pharmacy, 12 No., Airport Road, Potenga, Chattogram","Category":"Health Facilities","Type":"Pharmacy","Ownership":"Informal","Ward_Name":41,"Zone":2}},{"type":"Feature","id":262,"geometry":{"type":"Point","coordinates":[91.788050199956842,22.271701899722927]},"properties":{"FID":262,"name":"Karnaphuli EPZ Hospital, M. A Aziz Rd, Chattogram","Category":"Health Facilities","Type":"Hospital","Ownership":"Private","Ward_Name":40,"Zone":2}},{"type":"Feature","id":263,"geometry":{"type":"Point","coordinates":[91.791597600049272,22.260361400158558]},"properties":{"FID":263,"name":"Karnaphuli EPZ Hospital","Category":"Health Facilities","Type":"Hospital","Ownership":"Private","Ward_Name":40,"Zone":2}},{"type":"Feature","id":264,"geometry":{"type":"Point","coordinates":[91.792531000105612,22.260192199910136]},"properties":{"FID":264,"name":"Adi Pharmacy,Zahir Mansion, Katagor Mor, Word 40 , Uttar, Chattogram","Category":"Health Facilities","Type":"Pharmacy","Ownership":"Informal","Ward_Name":40,"Zone":2}},{"type":"Feature","id":265,"geometry":{"type":"Point","coordinates":[91.803243399663245,22.25445070043952]},"properties":{"FID":265,"name":"The Sunnah Mart, Religious destination Shop, Chowdhurypara Rd, Chattogram","Category":"Health Facilities","Type":"Pharmacy","Ownership":"Private","Ward_Name":40,"Zone":2}},{"type":"Feature","id":266,"geometry":{"type":"Point","coordinates":[91.80315449988035,22.254293999868253]},"properties":{"FID":266,"name":"S H Medical Hall, Rajr Pukurpar, Maddho Patenga, Chattogram","Category":"Health Facilities","Type":"Pharmacy","Ownership":"Informal","Ward_Name":41,"Zone":2}},{"type":"Feature","id":267,"geometry":{"type":"Point","coordinates":[91.795954800074014,22.246727900072585]},"properties":{"FID":267,"name":"Puspo Homio Hall, Unnamed Road, Chattogram","Category":"Health Facilities","Type":"Pharmacy","Ownership":"Private","Ward_Name":41,"Zone":2}},{"type":"Feature","id":268,"geometry":{"type":"Point","coordinates":[91.79550959968833,22.248839000119801]},"properties":{"FID":268,"name":"Raihan Medical Hall, South, Patenga, Chattogram","Category":"Health Facilities","Type":"Pharmacy","Ownership":"Informal","Ward_Name":41,"Zone":2}},{"type":"Feature","id":269,"geometry":{"type":"Point","coordinates":[91.794401300379775,22.238974100074699]},"properties":{"FID":269,"name":"Amina Pharmacy, Fulchari Para Rd, Chattogram","Category":"Health Facilities","Type":"Pharmacy","Ownership":"Informal","Ward_Name":41,"Zone":2}},{"type":"Feature","id":270,"geometry":{"type":"Point","coordinates":[91.81440389992008,22.26185870031884]},"properties":{"FID":270,"name":"Medical Squadron, BAF ZHR, BAF Rd, Chattogram","Category":"Health Facilities","Type":"Hospital","Ownership":"Private","Ward_Name":41,"Zone":2}},{"type":"Feature","id":271,"geometry":{"type":"Point","coordinates":[91.812549600383818,22.240991499757968]},"properties":{"FID":271,"name":"Patenga Pharmacy, Bazar, Nizam Market Rd, Chattogram","Category":"Health Facilities","Type":"Pharmacy","Ownership":"Informal","Ward_Name":41,"Zone":2}},{"type":"Feature","id":272,"geometry":{"type":"Point","coordinates":[91.785621599657134,22.28350690002344]},"properties":{"FID":272,"name":"Rakib Homeo Center, Taltola Rd, Chattogram","Category":"Health Facilities","Type":"Pharmacy","Ownership":"Informal","Ward_Name":39,"Zone":2}},{"type":"Feature","id":273,"geometry":{"type":"Point","coordinates":[91.785444599588686,22.279622800052209]},"properties":{"FID":273,"name":"Al-Makka Pharmacy, Akmal Ali Road.Epz., M. A Aziz Rd, Chattogram","Category":"Health Facilities","Type":"Pharmacy","Ownership":"Informal","Ward_Name":39,"Zone":2}},{"type":"Feature","id":274,"geometry":{"type":"Point","coordinates":[91.824828400410411,22.25147400022496]},"properties":{"FID":274,"name":"Amin Pharmacy Shop, 14 No Colony Rd, Chattogram","Category":"Health Facilities","Type":"Pharmacy","Ownership":"Informal","Ward_Name":41,"Zone":2}},{"type":"Feature","id":275,"geometry":{"type":"Point","coordinates":[91.784907600005795,22.285579799568154]},"properties":{"FID":275,"name":"Charu homeopathic, M. A Aziz Rd, Chattogram","Category":"Health Facilities","Type":"Hospital","Ownership":"Informal","Ward_Name":39,"Zone":2}},{"type":"Feature","id":276,"geometry":{"type":"Point","coordinates":[91.784783200384425,22.286753799748112]},"properties":{"FID":276,"name":"M/S Azad Medical Hall,  M. A Aziz Road, Chattogram","Category":"Health Facilities","Type":"Pharmacy","Ownership":"Informal","Ward_Name":39,"Zone":2}},{"type":"Feature","id":277,"geometry":{"type":"Point","coordinates":[91.789949899967951,22.286246799750074]},"properties":{"FID":277,"name":"BN DY SICK BAY Hospital, Dockyard Rd , Chattogram","Category":"Health Facilities","Type":"Hospital","Ownership":"Private","Ward_Name":39,"Zone":2}},{"type":"Feature","id":278,"geometry":{"type":"Point","coordinates":[91.78596689975268,22.287043799631704]},"properties":{"FID":278,"name":"Germany Homeo care, Ali Monshi Rd, Chattogram","Category":"Health Facilities","Type":"Pharmacy","Ownership":"Informal","Ward_Name":39,"Zone":2}},{"type":"Feature","id":279,"geometry":{"type":"Point","coordinates":[91.786490799810622,22.287272699575453]},"properties":{"FID":279,"name":"Islam Fermacy, Ali Monshi Rd, Chattogram","Category":"Health Facilities","Type":"Pharmacy","Ownership":"Private","Ward_Name":39,"Zone":2}},{"type":"Feature","id":280,"geometry":{"type":"Point","coordinates":[91.78440450036743,22.286866099890631]},"properties":{"FID":280,"name":"M/S. Rupali Medical Store, Box Ali Monshi Road, Jabbar Market, Bandartila, Chattogram","Category":"Health Facilities","Type":"Pharmacy","Ownership":"Private","Ward_Name":39,"Zone":2}},{"type":"Feature","id":281,"geometry":{"type":"Point","coordinates":[91.784322600008068,22.286699600306349]},"properties":{"FID":281,"name":"Tanisa Beauty Parlour, M. A Aziz Road, Chattogram","Category":"Health Facilities","Type":"Clinic","Ownership":"Private","Ward_Name":39,"Zone":2}},{"type":"Feature","id":282,"geometry":{"type":"Point","coordinates":[91.782480700324129,22.293002700314446]},"properties":{"FID":282,"name":"Haji Pharmacy, F.M Sawdagar Road, Opp. Bay-Shopping Center, South Halishahar, Bandar, Chattogram","Category":"Health Facilities","Type":"Pharmacy","Ownership":"Informal","Ward_Name":39,"Zone":2}},{"type":"Feature","id":283,"geometry":{"type":"Point","coordinates":[91.787309399609171,22.292799399572687]},"properties":{"FID":283,"name":"M/S. Shahin Pharmacy, F.M Sawdagar Rd, Chattogram","Category":"Health Facilities","Type":"Pharmacy","Ownership":"Informal","Ward_Name":39,"Zone":2}},{"type":"Feature","id":284,"geometry":{"type":"Point","coordinates":[91.79574469955827,22.360263800134305]},"properties":{"FID":284,"name":"Eye Hospital KIDS CORNER, Foys Lake Approach Rd, Chattogram","Category":"Health Facilities","Type":"Hospital","Ownership":"Private","Ward_Name":13,"Zone":7}},{"type":"Feature","id":285,"geometry":{"type":"Point","coordinates":[91.785744400283932,22.293640299859987]},"properties":{"FID":285,"name":"Zarine Medicine Centre, F.M Sawdagar Rd, Chattogram","Category":"Health Facilities","Type":"Pharmacy","Ownership":"Private","Ward_Name":39,"Zone":2}},{"type":"Feature","id":286,"geometry":{"type":"Point","coordinates":[91.789159100012512,22.295612399792446]},"properties":{"FID":286,"name":"Rezia Pharmacy, Haji Manson, Chattogram","Category":"Health Facilities","Type":"Pharmacy","Ownership":"Informal","Ward_Name":39,"Zone":2}},{"type":"Feature","id":287,"geometry":{"type":"Point","coordinates":[91.785133399986478,22.296272399651571]},"properties":{"FID":287,"name":"Arpita Medical Hall, Abdul Mabud Swodaghor Road, Barrister College, Bondor, Dokhin Halisohor, Chatto","Category":"Health Facilities","Type":"Pharmacy","Ownership":"Informal","Ward_Name":39,"Zone":2}},{"type":"Feature","id":288,"geometry":{"type":"Point","coordinates":[91.788039800196657,22.293214899847783]},"properties":{"FID":288,"name":"Rakib Homeo Center, F.M Sawdagar Road, New Mooring ,EPZ, Bandar, Ershad Market, Chattogram","Category":"Health Facilities","Type":"Pharmacy","Ownership":"Informal","Ward_Name":39,"Zone":2}},{"type":"Feature","id":289,"geometry":{"type":"Point","coordinates":[91.784882099729202,22.296260399997493]},"properties":{"FID":289,"name":"Konok Pharmacy, Abdul Mabud Showdagor Road, E. P. Z, Bondor, Chattogram","Category":"Health Facilities","Type":"Pharmacy","Ownership":"Informal","Ward_Name":39,"Zone":2}},{"type":"Feature","id":290,"geometry":{"type":"Point","coordinates":[91.787132100066401,22.293480900423276]},"properties":{"FID":290,"name":"Khagrachari Medico, Fokir Mohammad Sawdagar Road, Abu Zohur Building, New Mooring, Chattogram","Category":"Health Facilities","Type":"Pharmacy","Ownership":"Informal","Ward_Name":39,"Zone":2}},{"type":"Feature","id":291,"geometry":{"type":"Point","coordinates":[91.800950099667432,22.361500799622263]},"properties":{"FID":291,"name":"Department of Pharmacy, USTC Academic Building, Chattogram","Category":"Health Facilities","Type":"Pharmacy","Ownership":"Informal","Ward_Name":13,"Zone":7}},{"type":"Feature","id":292,"geometry":{"type":"Point","coordinates":[91.836975799593517,22.333080900063521]},"properties":{"FID":292,"name":"M/s. A,S, Medico, Kabi Nazrul Islam Road, Firingi Bazar, Katwaili, Chattogram","Category":"Health Facilities","Type":"Pharmacy","Ownership":"Informal","Ward_Name":33,"Zone":5}},{"type":"Feature","id":293,"geometry":{"type":"Point","coordinates":[91.82826770019426,22.34216199957666]},"properties":{"FID":293,"name":"Madina Pharmacy, Love Ln, Chattogram","Category":"Health Facilities","Type":"Pharmacy","Ownership":"Informal","Ward_Name":22,"Zone":5}},{"type":"Feature","id":294,"geometry":{"type":"Point","coordinates":[91.827497099911284,22.342315700009578]},"properties":{"FID":294,"name":"M/S ROBEL MEDICAL HALL, Jublee Road, Chattogram","Category":"Health Facilities","Type":"Pharmacy","Ownership":"Informal","Ward_Name":22,"Zone":5}},{"type":"Feature","id":295,"geometry":{"type":"Point","coordinates":[91.829114699683714,22.340713799702144]},"properties":{"FID":295,"name":"S,S Pharmacy,  Enayet Bazar Rd, Chattogram","Category":"Health Facilities","Type":"Pharmacy","Ownership":"Informal","Ward_Name":22,"Zone":5}},{"type":"Feature","id":296,"geometry":{"type":"Point","coordinates":[91.82771710016408,22.335691800136544]},"properties":{"FID":296,"name":"Ayesha Pharmacy, Station Rd, Chattogram","Category":"Health Facilities","Type":"Pharmacy","Ownership":"Informal","Ward_Name":31,"Zone":5}},{"type":"Feature","id":297,"geometry":{"type":"Point","coordinates":[91.828953800177771,22.340620299887007]},"properties":{"FID":297,"name":"AIG Hospitals Bangladesh, Enayet Bazar Rd, Chattogram","Category":"Health Facilities","Type":"Hospital","Ownership":"Private","Ward_Name":22,"Zone":5}},{"type":"Feature","id":298,"geometry":{"type":"Point","coordinates":[91.831725099733603,22.348233400051413]},"properties":{"FID":298,"name":"Adhyapak (Dr.) A.M.M. Shariful Alam, S.S. Khaled Road,East Par Of Askar Dighi,Jamal Khan,Chattogram","Category":"Health Facilities","Type":"Doctor's Chamber","Ownership":"Private","Ward_Name":21,"Zone":5}},{"type":"Feature","id":299,"geometry":{"type":"Point","coordinates":[91.823218399909308,22.342153000060932]},"properties":{"FID":299,"name":"Railway Bokkho Badhy Hospital, Bangladesh Railway Hospital, C.R.B. Rd, Chattogram","Category":"Health Facilities","Type":"Hospital","Ownership":"Government","Ward_Name":22,"Zone":5}},{"type":"Feature","id":300,"geometry":{"type":"Point","coordinates":[91.823791900276035,22.358570900127006]},"properties":{"FID":300,"name":"Asian Specialized Hospital LTD, O.R. Nizam Rd, Chattogram","Category":"Health Facilities","Type":"Hospital","Ownership":"Private","Ward_Name":15,"Zone":4}},{"type":"Feature","id":301,"geometry":{"type":"Point","coordinates":[91.822259999599339,22.352601700408172]},"properties":{"FID":301,"name":"Niruponi Pathology Laboratory, CDA Ave, Chattogram","Category":"Health Facilities","Type":"Doctor's Chamber","Ownership":"Private","Ward_Name":15,"Zone":4}},{"type":"Feature","id":302,"geometry":{"type":"Point","coordinates":[91.828539100299281,22.339322800307059]},"properties":{"FID":302,"name":"Yashoda Hospitals Medical Information Centre, Yasmeen Palace, Jubilee Rd, Chattogram","Category":"Health Facilities","Type":"Hospital","Ownership":"Private","Ward_Name":22,"Zone":5}},{"type":"Feature","id":303,"geometry":{"type":"Point","coordinates":[91.825689600194949,22.352358299795753]},"properties":{"FID":303,"name":"vaccine care Pharmacy, Chatteshwari Rd, Chattogram","Category":"Health Facilities","Type":"Pharmacy","Ownership":"Informal","Ward_Name":15,"Zone":4}},{"type":"Feature","id":304,"geometry":{"type":"Point","coordinates":[91.823579699843322,22.359361500432954]},"properties":{"FID":304,"name":"Professor Dr. Mohammad Shafiul Hasan, O.R. Nizam Road, G.E.C Circle, Chattogram","Category":"Health Facilities","Type":"Doctor's Chamber","Ownership":"Private","Ward_Name":15,"Zone":4}},{"type":"Feature","id":305,"geometry":{"type":"Point","coordinates":[91.822847999735473,22.359315400285539]},"properties":{"FID":305,"name":"Otolaryngologist and Head Neck surgeon Doctor, O R Nizam Road , O.R. Nizam Rd, Chattogram","Category":"Health Facilities","Type":"Doctor's Chamber","Ownership":"Informal","Ward_Name":15,"Zone":4}},{"type":"Feature","id":306,"geometry":{"type":"Point","coordinates":[91.826509700062672,22.359506099726786]},"properties":{"FID":306,"name":"Chittagong Health Point Hospital, O.R. Nizam Rd, Chattogram","Category":"Health Facilities","Type":"Hospital","Ownership":"Private","Ward_Name":15,"Zone":4}},{"type":"Feature","id":307,"geometry":{"type":"Point","coordinates":[91.825959500230795,22.359086000318712]},"properties":{"FID":307,"name":"DR. MD. SHAFIQUL ISLAM CHEMBER Hospital, O.R. Nizam Rd, Chattogram","Category":"Health Facilities","Type":"Hospital","Ownership":"Private","Ward_Name":15,"Zone":4}},{"type":"Feature","id":308,"geometry":{"type":"Point","coordinates":[91.823920999754421,22.359327399939616]},"properties":{"FID":308,"name":"Blue View Healthcare Ltd, O.R. Nizam Rd, Chattogram","Category":"Health Facilities","Type":"Doctor's Chamber","Ownership":"Private","Ward_Name":15,"Zone":4}},{"type":"Feature","id":309,"geometry":{"type":"Point","coordinates":[91.823049099836169,22.359383399824083]},"properties":{"FID":309,"name":"Dr.Md. Nur Hossen Bhuiyan(Shahin), O.R. Nizam Rd, Chattogram","Category":"Health Facilities","Type":"Doctor's Chamber","Ownership":"Private","Ward_Name":15,"Zone":4}},{"type":"Feature","id":310,"geometry":{"type":"Point","coordinates":[91.826197399690329,22.359196400193753]},"properties":{"FID":310,"name":"Saul Heart Center, Heart hospital, O.R. Nizam Rd, Chattogram","Category":"Health Facilities","Type":"Hospital","Ownership":"Private","Ward_Name":15,"Zone":4}},{"type":"Feature","id":311,"geometry":{"type":"Point","coordinates":[91.830619500189869,22.368337800149391]},"properties":{"FID":311,"name":"M/S. Shahjalal Medical Hall Pharmacy, Sahid Jame Alam Sharak, Muradpur, Chattogram","Category":"Health Facilities","Type":"Pharmacy","Ownership":"Informal","Ward_Name":7,"Zone":6}},{"type":"Feature","id":312,"geometry":{"type":"Point","coordinates":[91.830180399905601,22.363424900039149]},"properties":{"FID":312,"name":"Chevron Specialized Hospital, O.R. Nizam Rd, Chattogram","Category":"Health Facilities","Type":"Hospital","Ownership":"Private","Ward_Name":8,"Zone":4}},{"type":"Feature","id":313,"geometry":{"type":"Point","coordinates":[91.828011100232175,22.364326300418497]},"properties":{"FID":313,"name":"Sumaiya Drug House Pharmacy, House No. 13, Road No. 1, East Nasirabad, Panchlaish, Chattogram","Category":"Health Facilities","Type":"Pharmacy","Ownership":"Informal","Ward_Name":8,"Zone":4}},{"type":"Feature","id":314,"geometry":{"type":"Point","coordinates":[91.833875099955947,22.365497799583807]},"properties":{"FID":314,"name":"M/S. Chowdhury Pharmachy, Mirzapul Rd, Chattogram","Category":"Health Facilities","Type":"Pharmacy","Ownership":"Private","Ward_Name":8,"Zone":4}},{"type":"Feature","id":315,"geometry":{"type":"Point","coordinates":[91.833751099633616,22.365880800158834]},"properties":{"FID":315,"name":"M/S. Nahar Pharmacy, Mirzapul Rd, Chattogram","Category":"Health Facilities","Type":"Pharmacy","Ownership":"Informal","Ward_Name":8,"Zone":4}},{"type":"Feature","id":316,"geometry":{"type":"Point","coordinates":[91.830105099670675,22.363536799983365]},"properties":{"FID":316,"name":"Fortes Cardiac Hospital, Nizam Road, Panchlaish, Muradpur, Chattogram","Category":"Health Facilities","Type":"Hospital","Ownership":"Private","Ward_Name":8,"Zone":4}},{"type":"Feature","id":317,"geometry":{"type":"Point","coordinates":[91.825051100428027,22.364726899826621]},"properties":{"FID":317,"name":"Bangkok Hospital Office Chattogram, Level 05, YAKUB TRADE CENTER, Chattogram","Category":"Health Facilities","Type":"Hospital","Ownership":"Private","Ward_Name":8,"Zone":4}},{"type":"Feature","id":318,"geometry":{"type":"Point","coordinates":[91.83150110019568,22.364322400058768]},"properties":{"FID":318,"name":"Yashoda Hospitals Information Center Chittagong, Sugandha Residential Area, Chattogram","Category":"Health Facilities","Type":"Hospital","Ownership":"Private","Ward_Name":8,"Zone":4}},{"type":"Feature","id":319,"geometry":{"type":"Point","coordinates":[91.841612699566497,22.362113399813609]},"properties":{"FID":319,"name":"UNITED Pharmacy, Abdullah Khan Rd, Chattogram","Category":"Health Facilities","Type":"Pharmacy","Ownership":"Informal","Ward_Name":16,"Zone":4}},{"type":"Feature","id":320,"geometry":{"type":"Point","coordinates":[91.842503999659925,22.362331300149435]},"properties":{"FID":320,"name":"Chowdhury Drug House, Arakan Road, Badurtola, Panchlaish, Chattogram","Category":"Health Facilities","Type":"Pharmacy","Ownership":"Informal","Ward_Name":8,"Zone":4}},{"type":"Feature","id":321,"geometry":{"type":"Point","coordinates":[91.840367800433683,22.359593299791015]},"properties":{"FID":321,"name":"Mojumdar Drug House Pharmacy, Idris Villa,  Kapasgola Rd, Chattogram","Category":"Health Facilities","Type":"Pharmacy","Ownership":"Informal","Ward_Name":16,"Zone":4}},{"type":"Feature","id":322,"geometry":{"type":"Point","coordinates":[91.845544399754317,22.368429600245918]},"properties":{"FID":322,"name":"Ergon pharmacy","Category":"Health Facilities","Type":"Pharmacy","Ownership":"Informal","Ward_Name":6,"Zone":4}},{"type":"Feature","id":323,"geometry":{"type":"Point","coordinates":[91.836785700000121,22.363065799846822]},"properties":{"FID":323,"name":"M/s. Health Pharmacy, Abdul Latif Road, Sholakbahor, Pachlaish, Chattogram","Category":"Health Facilities","Type":"Pharmacy","Ownership":"Informal","Ward_Name":8,"Zone":4}},{"type":"Feature","id":324,"geometry":{"type":"Point","coordinates":[91.836344099600581,22.363004799731755]},"properties":{"FID":324,"name":"Karim Drug House, Pharmacy, Abdullah Khan Lane, Katalganj, Panchlaish, Chattogram","Category":"Health Facilities","Type":"Pharmacy","Ownership":"Informal","Ward_Name":8,"Zone":4}},{"type":"Feature","id":325,"geometry":{"type":"Point","coordinates":[91.833202700244499,22.367966700303043]},"properties":{"FID":325,"name":"Chittagong Union Hospital Private Limited, Mirzapul Rd, Chattogram","Category":"Health Facilities","Type":"Hospital","Ownership":"Private","Ward_Name":7,"Zone":6}},{"type":"Feature","id":326,"geometry":{"type":"Point","coordinates":[91.845291799976621,22.368116000353211]},"properties":{"FID":326,"name":"Orchhana Medico","Category":"Health Facilities","Type":"Pharmacy","Ownership":"Informal","Ward_Name":6,"Zone":4}},{"type":"Feature","id":327,"geometry":{"type":"Point","coordinates":[91.849846000092896,22.331041400440313]},"properties":{"FID":327,"name":"Potiya Homeo Hall, Homeopathic pharmacy, River City Market, Notun Bridge, Choktai, Chattogram","Category":"Health Facilities","Type":"Pharmacy","Ownership":"Informal","Ward_Name":35,"Zone":3}},{"type":"Feature","id":328,"geometry":{"type":"Point","coordinates":[91.853264799830697,22.349496300014266]},"properties":{"FID":328,"name":"Middle Bakalia Mother And Childwellfare Center., Sathish Babu Ln, Chattogram","Category":"Health Facilities","Type":"Hospital","Ownership":"NGO/Institutional","Ward_Name":18,"Zone":3}},{"type":"Feature","id":329,"geometry":{"type":"Point","coordinates":[91.852104400098028,22.332383900296804]},"properties":{"FID":329,"name":"Ayesha Homeo Treatment Center, Karnaphuli City Garden, Next to New Bridge, Chattogram","Category":"Health Facilities","Type":"Doctor's Chamber","Ownership":"Informal","Ward_Name":35,"Zone":3}},{"type":"Feature","id":330,"geometry":{"type":"Point","coordinates":[91.852263800434116,22.351029299662514]},"properties":{"FID":330,"name":"Irin Medico Pharmacy, Bakalia Access Rd, Chittagong - Coxs Bazar Hwy, Chattogram","Category":"Health Facilities","Type":"Pharmacy","Ownership":"Informal","Ward_Name":18,"Zone":3}},{"type":"Feature","id":331,"geometry":{"type":"Point","coordinates":[91.85175609986419,22.363976000092407]},"properties":{"FID":331,"name":"Nazir Shah Homeo Hall Pharmacy, Shah Amanat Road, Bohaddarhat, Chattogram","Category":"Health Facilities","Type":"Pharmacy","Ownership":"Informal","Ward_Name":6,"Zone":4}},{"type":"Feature","id":332,"geometry":{"type":"Point","coordinates":[91.793796099810208,22.357278800076585]},"properties":{"FID":332,"name":"M Pharmacy,  Shahid Line , Policebit Mor, Khulsi, Pahartali, Chattogram","Category":"Health Facilities","Type":"Pharmacy","Ownership":"Informal","Ward_Name":13,"Zone":7}},{"type":"Feature","id":333,"geometry":{"type":"Point","coordinates":[91.820645099591729,22.363417899716353]},"properties":{"FID":333,"name":"Mondira Pharmacy, C And B Colony, Nasirabad, Chattogra","Category":"Health Facilities","Type":"Pharmacy","Ownership":"Informal","Ward_Name":8,"Zone":4}},{"type":"Feature","id":334,"geometry":{"type":"Point","coordinates":[91.829451100088249,22.381903799820577]},"properties":{"FID":334,"name":"S. B. Madina Pharmacy, Hathazari Rd, Chattogram","Category":"Health Facilities","Type":"Pharmacy","Ownership":"Informal","Ward_Name":7,"Zone":6}},{"type":"Feature","id":335,"geometry":{"type":"Point","coordinates":[91.8245079998444,22.389381300206878]},"properties":{"FID":335,"name":"Ma-Mony Pharmacy, Chattogram Hathajari Highway, Chattogram","Category":"Health Facilities","Type":"Pharmacy","Ownership":"Informal","Ward_Name":3,"Zone":6}},{"type":"Feature","id":336,"geometry":{"type":"Point","coordinates":[91.817747000124029,22.369305799822826]},"properties":{"FID":336,"name":"Zam Zam Pharmacy, Baby super, Tulatoli Road, Bayazid Bostami Rd, Chattogram","Category":"Health Facilities","Type":"Pharmacy","Ownership":"Informal","Ward_Name":8,"Zone":4}},{"type":"Feature","id":337,"geometry":{"type":"Point","coordinates":[91.82458210038368,22.38907140012509]},"properties":{"FID":337,"name":"M/s Islamia Pharmacy, Baghdad Hotel Er Ultodike, Oxygen Square, Chattogram","Category":"Health Facilities","Type":"Pharmacy","Ownership":"Informal","Ward_Name":3,"Zone":6}},{"type":"Feature","id":338,"geometry":{"type":"Point","coordinates":[91.8105278003178,22.388585900219198]},"properties":{"FID":338,"name":"M/S Biddyut Medical Hall, Bayazid Bostami Rd, Chattogram","Category":"Health Facilities","Type":"Pharmacy","Ownership":"Informal","Ward_Name":2,"Zone":6}},{"type":"Feature","id":339,"geometry":{"type":"Point","coordinates":[91.831955800120113,22.331673300082798]},"properties":{"FID":339,"name":"Seba Pharmecy, Strand Rd, Chattogram","Category":"Health Facilities","Type":"Pharmacy","Ownership":"Private","Ward_Name":31,"Zone":5}},{"type":"Feature","id":340,"geometry":{"type":"Point","coordinates":[91.834038700125973,22.330917400117983]},"properties":{"FID":340,"name":"M/s. Mohchen Awlia Pharmacy, 2 No Lane, Alkoron Road, Alkoron, Chattogram","Category":"Health Facilities","Type":"Pharmacy","Ownership":"Informal","Ward_Name":31,"Zone":5}},{"type":"Feature","id":341,"geometry":{"type":"Point","coordinates":[91.831085699745302,22.328992900402056]},"properties":{"FID":341,"name":"Arabinda Pharmecy, Strand Road, Chattogram","Category":"Health Facilities","Type":"Pharmacy","Ownership":"Private","Ward_Name":31,"Zone":5}},{"type":"Feature","id":342,"geometry":{"type":"Point","coordinates":[91.833888599679199,22.330520299971909]},