{
  "type" : "FeatureCollection",
  "features" : [{"type":"Feature","id":0,"geometry":{"type":"Point","coordinates":[91.823758700004078,22.359339299768919]},"properties":{"FID":0,"name":"Metropolitan Clinic","Category":"Health Facilities","Type":"Hospital","Ownership":"Private","Ward_Name":15,"Zone":4,"Household_":0,"Pop_Num":0,"Female_Num":0,"Slum_ID":""}},{"type":"Feature","id":1,"geometry":{"type":"Point","coordinates":[91.868978000134632,22.394263900358737]},"properties":{"FID":1,"name":"Medical Square","Category":"Health Facilities","Type":"Hospital","Ownership":"Private","Ward_Name":4,"Zone":4,"Household_":0,"Pop_Num":0,"Female_Num":0,"Slum_ID":""}},{"type":"Feature","id":2,"geometry":{"type":"Point","coordinates":[91.826521000044181,22.359183600143069]},"properties":{"FID":2,"name":"Marie Stopes Clinic","Category":"Health Facilities","Type":"Hospital","Ownership":"Private","Ward_Name":15,"Zone":4,"Household_":0,"Pop_Num":0,"Female_Num":0,"Slum_ID":""}},{"type":"Feature","id":3,"geometry":{"type":"Point","coordinates":[91.825463300191188,22.358303400381658]},"properties":{"FID":3,"name":"Metro diagnostic center","Category":"Health Facilities","Type":"Hospital","Ownership":"Private","Ward_Name":15,"Zone":4,"Household_":0,"Pop_Num":0,"Female_Num":0,"Slum_ID":""}},{"type":"Feature","id":4,"geometry":{"type":"Point","coordinates":[91.868987499673437,22.394234399897698]},"properties":{"FID":4,"name":"Medical  square ,OS","Category":"Health Facilities","Type":"Doctor's Chamber","Ownership":"Private","Ward_Name":4,"Zone":4,"Household_":0,"Pop_Num":0,"Female_Num":0,"Slum_ID":""}},{"type":"Feature","id":5,"geometry":{"type":"Point","coordinates":[91.832013100424319,22.331399700236034]},"properties":{"FID":5,"name":"Menon Hospital","Category":"Health Facilities","Type":"Hospital","Ownership":"Private","Ward_Name":31,"Zone":5,"Household_":0,"Pop_Num":0,"Female_Num":0,"Slum_ID":""}},{"type":"Feature","id":6,"geometry":{"type":"Point","coordinates":[91.833468500271124,22.333123199675981]},"properties":{"FID":6,"name":"Memon-2","Category":"Health Facilities","Type":"Hospital","Ownership":"CCC","Ward_Name":31,"Zone":5,"Household_":0,"Pop_Num":0,"Female_Num":0,"Slum_ID":""}},{"type":"Feature","id":7,"geometry":{"type":"Point","coordinates":[91.800578099599647,22.267509100264817]},"properties":{"FID":7,"name":"Medical Center","Category":"Health Facilities","Type":"Hospital","Ownership":"Private","Ward_Name":40,"Zone":2,"Household_":0,"Pop_Num":0,"Female_Num":0,"Slum_ID":""}},{"type":"Feature","id":8,"geometry":{"type":"Point","coordinates":[91.825338199997987,22.355143000149383]},"properties":{"FID":8,"name":"Max Hospital","Category":"Health Facilities","Type":"Hospital","Ownership":"Private","Ward_Name":15,"Zone":4,"Household_":0,"Pop_Num":0,"Female_Num":0,"Slum_ID":""}},{"type":"Feature","id":9,"geometry":{"type":"Point","coordinates":[91.827080399940542,22.35961460023367]},"properties":{"FID":9,"name":"Meristop Clinic","Category":"Health Facilities","Type":"Clinic","Ownership":"Private","Ward_Name":15,"Zone":4,"Household_":0,"Pop_Num":0,"Female_Num":0,"Slum_ID":""}},{"type":"Feature","id":10,"geometry":{"type":"Point","coordinates":[91.816245199756224,22.353410500294387]},"properties":{"FID":10,"name":"Mamata Clinic","Category":"Health Facilities","Type":"Hospital","Ownership":"NGO/Institutional","Ward_Name":13,"Zone":7,"Household_":0,"Pop_Num":0,"Female_Num":0,"Slum_ID":""}},{"type":"Feature","id":11,"geometry":{"type":"Point","coordinates":[91.803807799790206,22.3426436000222]},"properties":{"FID":11,"name":"MEDISAVE PATHOLOGY LAB Hospital, Dhaka Trunk Rd, Chattogram","Category":"Health Facilities","Type":"Hospital","Ownership":"Private","Ward_Name":24,"Zone":1,"Household_":0,"Pop_Num":0,"Female_Num":0,"Slum_ID":""}},{"type":"Feature","id":12,"geometry":{"type":"Point","coordinates":[91.817313499918157,22.332986099828702]},"properties":{"FID":12,"name":"Medico Pharmacy, Saleh Ahmed Chairman Lane Road, Pathantuli Road, Matiar Pool, Najirpol, Chattogram","Category":"Health Facilities","Type":"Pharmacy","Ownership":"Informal","Ward_Name":28,"Zone":1,"Household_":0,"Pop_Num":0,"Female_Num":0,"Slum_ID":""}},{"type":"Feature","id":13,"geometry":{"type":"Point","coordinates":[91.784150000322313,22.286014899667919]},"properties":{"FID":13,"name":"Manju Homeo is Bandartila, Sarangs Mansion, Dakshin Halishahar, Bandertilla, Chattogram","Category":"Health Facilities","Type":"Pharmacy","Ownership":"Informal","Ward_Name":39,"Zone":2,"Household_":0,"Pop_Num":0,"Female_Num":0,"Slum_ID":""}},{"type":"Feature","id":14,"geometry":{"type":"Point","coordinates":[91.774115700379355,22.276979900302194]},"properties":{"FID":14,"name":"Mayer Dowa Pharmacy, Humayun Kabir Rd, Humayun Bagh, Chattogram","Category":"Health Facilities","Type":"Pharmacy","Ownership":"Informal","Ward_Name":40,"Zone":2,"Household_":0,"Pop_Num":0,"Female_Num":0,"Slum_ID":""}},{"type":"Feature","id":15,"geometry":{"type":"Point","coordinates":[91.824464200162765,22.396024399706334]},"properties":{"FID":15,"name":"Medicare Hospital, Bongobondhu Avenue, Oxygen - Kuwaish Rd, Chattogram","Category":"Health Facilities","Type":"Hospital","Ownership":"Private","Ward_Name":3,"Zone":6,"Household_":0,"Pop_Num":0,"Female_Num":0,"Slum_ID":""}},{"type":"Feature","id":16,"geometry":{"type":"Point","coordinates":[91.830913299709096,22.329138599566761]},"properties":{"FID":16,"name":"Mesarso orobindo parmecy, Sadarghat Rd, Chattogram","Category":"Health Facilities","Type":"Pharmacy","Ownership":"Private","Ward_Name":30,"Zone":5,"Household_":0,"Pop_Num":0,"Female_Num":0,"Slum_ID":""}},{"type":"Feature","id":17,"geometry":{"type":"Point","coordinates":[91.81440389992008,22.26185870031884]},"properties":{"FID":17,"name":"Medical Squadron, BAF ZHR, BAF Rd, Chattogram","Category":"Health Facilities","Type":"Hospital","Ownership":"Private","Ward_Name":41,"Zone":2,"Household_":0,"Pop_Num":0,"Female_Num":0,"Slum_ID":""}},{"type":"Feature","id":18,"geometry":{"type":"Point","coordinates":[91.826863299999999,22.3290477]},"properties":{"FID":18,"name":"Maloom Masjid","Category":"Religious Place","Type":"Mosque","Ownership":" ","Ward_Name":30,"Zone":5,"Household_":0,"Pop_Num":0,"Female_Num":0,"Slum_ID":""}},{"type":"Feature","id":19,"geometry":{"type":"Point","coordinates":[91.814927699999998,22.3427392]},"properties":{"FID":19,"name":"Mama Bhagina Jame Masjid","Category":"Religious Place","Type":"Mosque","Ownership":" ","Ward_Name":14,"Zone":3,"Household_":0,"Pop_Num":0,"Female_Num":0,"Slum_ID":""}},{"type":"Feature","id":20,"geometry":{"type":"Point","coordinates":[91.799733900000007,22.328816700000001]},"properties":{"FID":20,"name":"Masjid E Amir Mosque, Agrabad access Rd, Chattogram","Category":"Religious Place","Type":"Mosque","Ownership":" ","Ward_Name":24,"Zone":1,"Household_":0,"Pop_Num":0,"Female_Num":0,"Slum_ID":""}},{"type":"Feature","id":21,"geometry":{"type":"Point","coordinates":[91.777788999999999,22.338932]},"properties":{"FID":21,"name":"Masjid-A-Baitul Azim, Halishahar Housing Estate, Chattogram","Category":"Religious Place","Type":"Mosque","Ownership":" ","Ward_Name":26,"Zone":2,"Household_":0,"Pop_Num":0,"Female_Num":0,"Slum_ID":""}},{"type":"Feature","id":22,"geometry":{"type":"Point","coordinates":[91.813722799999994,22.338038399999999]},"properties":{"FID":22,"name":"Masjid E Dewania, Dhaka Trunk Rd, Chattogram","Category":"Religious Place","Type":"Mosque","Ownership":" ","Ward_Name":23,"Zone":1,"Household_":0,"Pop_Num":0,"Female_Num":0,"Slum_ID":""}},{"type":"Feature","id":23,"geometry":{"type":"Point","coordinates":[91.798272600000004,22.314202900000002]},"properties":{"FID":23,"name":"Maqbool Ali Saw: Jame Masjid, Port Colony Rd, Chattogram","Category":"Religious Place","Type":"Mosque","Ownership":" ","Ward_Name":36,"Zone":1,"Household_":0,"Pop_Num":0,"Female_Num":0,"Slum_ID":""}},{"type":"Feature","id":24,"geometry":{"type":"Point","coordinates":[91.870360500000004,22.398871400000001]},"properties":{"FID":24,"name":"Manhur Ali Chowdhury Jame Masjid, Chittagong - Kaptai Rd, Chattogram","Category":"Religious Place","Type":"Mosque","Ownership":" ","Ward_Name":5,"Zone":4,"Household_":0,"Pop_Num":0,"Female_Num":0,"Slum_ID":""}},{"type":"Feature","id":25,"geometry":{"type":"Point","coordinates":[91.786422200000004,22.279519799999999]},"properties":{"FID":25,"name":"MES Masjid, Airport Road, Chattogram","Category":"Religious Place","Type":"Mosque","Ownership":" ","Ward_Name":39,"Zone":2,"Household_":0,"Pop_Num":0,"Female_Num":0,"Slum_ID":""}},{"type":"Feature","id":26,"geometry":{"type":"Point","coordinates":[91.824777100000006,22.3562887]},"properties":{"FID":26,"name":"Mehedibag Shahid Mirza Lane Jame Mosjid, Mahedibag Rd, Chattogram","Category":"Religious Place","Type":"Mosque","Ownership":" ","Ward_Name":15,"Zone":4,"Household_":0,"Pop_Num":0,"Female_Num":0,"Slum_ID":""}},{"type":"Feature","id":27,"geometry":{"type":"Point","coordinates":[91.836218799757887,22.340628900103695]},"properties":{"FID":27,"name":"MES School","Category":"Educational","Type":"School","Ownership":" ","Ward_Name":32,"Zone":5,"Household_":0,"Pop_Num":0,"Female_Num":0,"Slum_ID":""}},{"type":"Feature","id":28,"geometry":{"type":"Point","coordinates":[91.829890400022009,22.361245400255086]},"properties":{"FID":28,"name":"Mastermind School","Category":"Educational","Type":"School","Ownership":" ","Ward_Name":16,"Zone":4,"Household_":0,"Pop_Num":0,"Female_Num":0,"Slum_ID":""}},{"type":"Feature","id":29,"geometry":{"type":"Point","coordinates":[91.8520222002644,22.364321499837388]},"properties":{"FID":29,"name":"Metropolitan Residential School and College","Category":"Educational","Type":"School","Ownership":" ","Ward_Name":6,"Zone":4,"Household_":0,"Pop_Num":0,"Female_Num":0,"Slum_ID":""}},{"type":"Feature","id":30,"geometry":{"type":"Point","coordinates":[91.783388000256082,22.337555199912572]},"properties":{"FID":30,"name":"Memex Polytechnic & BM College-Junior Branch, Rupsi Housing Gate, Polytechnic,  Chattogram","Category":"Educational","Type":"School","Ownership":" ","Ward_Name":26,"Zone":2,"Household_":0,"Pop_Num":0,"Female_Num":0,"Slum_ID":""}},{"type":"Feature","id":31,"geometry":{"type":"Point","coordinates":[91.782181899674981,22.341413099934641]},"properties":{"FID":31,"name":"MB Grammar School,I-Block Golondaz Rd, Chattogram","Category":"Educational","Type":"School","Ownership":" ","Ward_Name":26,"Zone":2,"Household_":0,"Pop_Num":0,"Female_Num":0,"Slum_ID":""}},{"type":"Feature","id":32,"geometry":{"type":"Point","coordinates":[91.782363999798804,22.284000400298282]},"properties":{"FID":32,"name":"Matrix Coaching Center, Unnamed Road, Chattogram","Category":"Educational","Type":"School","Ownership":" ","Ward_Name":39,"Zone":2,"Household_":0,"Pop_Num":0,"Female_Num":0,"Slum_ID":""}},{"type":"Feature","id":33,"geometry":{"type":"Point","coordinates":[91.780458800433337,22.278644200069834]},"properties":{"FID":33,"name":"Mamata School And College, Ali Monshi Rd, Chattogram","Category":"Educational","Type":"School","Ownership":" ","Ward_Name":39,"Zone":2,"Household_":0,"Pop_Num":0,"Female_Num":0,"Slum_ID":""}},{"type":"Feature","id":34,"geometry":{"type":"Point","coordinates":[91.832382700201492,22.337510400184897]},"properties":{"FID":34,"name":"Memon Grammar School, Nandankanan Rd, Chattogram","Category":"Educational","Type":"School","Ownership":" ","Ward_Name":22,"Zone":5,"Household_":0,"Pop_Num":0,"Female_Num":0,"Slum_ID":""}},{"type":"Feature","id":35,"geometry":{"type":"Point","coordinates":[91.825467099826881,22.343962800243105]},"properties":{"FID":35,"name":"Maritime Museum, Naval Ave, Chattogram","Category":"Cultural Site","Type":"Museum","Ownership":" ","Ward_Name":22,"Zone":5,"Household_":0,"Pop_Num":0,"Female_Num":0,"Slum_ID":""}},{"type":"Feature","id":36,"geometry":{"type":"Point","coordinates":[91.822465400258068,22.352786799771025]},"properties":{"FID":36,"name":"Meridian Kohinoor City, Mohammad Ali Road, Chattogram","Category":"Commercial","Type":"Shopping Mall","Ownership":" ","Ward_Name":15,"Zone":4,"Household_":0,"Pop_Num":0,"Female_Num":0,"Slum_ID":""}},{"type":"Feature","id":37,"geometry":{"type":"Point","coordinates":[91.838367399735773,22.361216899840088]},"properties":{"FID":37,"name":"Mastermind International School, Katalgong, Chattogram","Category":"Educational","Type":"School","Ownership":" ","Ward_Name":16,"Zone":4,"Household_":0,"Pop_Num":0,"Female_Num":0,"Slum_ID":""}},{"type":"Feature","id":38,"geometry":{"type":"Point","coordinates":[91.852195299973175,22.364354399735817]},"properties":{"FID":38,"name":"Mern Sun School And College, Huda Bhaban (L-2), Deputy Road, Chattogram","Category":"Educational","Type":"College","Ownership":" ","Ward_Name":6,"Zone":4,"Household_":0,"Pop_Num":0,"Female_Num":0,"Slum_ID":""}},{"type":"Feature","id":39,"geometry":{"type":"Point","coordinates":[91.835102099882079,22.333073700091234]},"properties":{"FID":39,"name":"Maya Jewellers, D. M. Market, Infront Of New Bangladesh Bank, Kotwali, Chattogram","Category":"Commercial","Type":"Market","Ownership":" ","Ward_Name":33,"Zone":5,"Household_":0,"Pop_Num":0,"Female_Num":0,"Slum_ID":""}},{"type":"Feature","id":40,"geometry":{"type":"Point","coordinates":[91.82109920780718,22.265595320673917]},"properties":{"FID":40,"name":"MES Mosque","Category":" ","Type":"Mosque","Ownership":" ","Ward_Name":0,"Zone":0,"Household_":0,"Pop_Num":0,"Female_Num":0,"Slum_ID":""}},{"type":"Feature","id":41,"geometry":{"type":"Point","coordinates":[91.777587725535852,22.268476257052388]},"properties":{"FID":41,"name":"Mamataz Pharmacy","Category":" ","Type":"Pharmacy","Ownership":" ","Ward_Name":0,"Zone":0,"Household_":0,"Pop_Num":0,"Female_Num":0,"Slum_ID":""}},{"type":"Feature","id":42,"geometry":{"type":"Point","coordinates":[91.80863124457521,22.257955192611483]},"properties":{"FID":42,"name":"Masum Fokir Jame Masjid","Category":" ","Type":"Mosque","Ownership":" ","Ward_Name":0,"Zone":0,"Household_":0,"Pop_Num":0,"Female_Num":0,"Slum_ID":""}},{"type":"Feature","id":43,"geometry":{"type":"Point","coordinates":[91.777654008396354,22.277599427810248]},"properties":{"FID":43,"name":"Mawlana Abu Bakkar Jame Masjid","Category":" ","Type":"Mosque","Ownership":" ","Ward_Name":0,"Zone":0,"Household_":0,"Pop_Num":0,"Female_Num":0,"Slum_ID":""}},{"type":"Feature","id":44,"geometry":{"type":"Point","coordinates":[91.787725077103559,22.289014891985762]},"properties":{"FID":44,"name":"Mawlana Abdul Hakim Ideal School","Category":" ","Type":"School","Ownership":" ","Ward_Name":0,"Zone":0,"Household_":0,"Pop_Num":0,"Female_Num":0,"Slum_ID":""}},{"type":"Feature","id":45,"geometry":{"type":"Point","coordinates":[91.775722877501707,22.31288574394053]},"properties":{"FID":45,"name":"Medicine House","Category":" ","Type":"Pharmacy","Ownership":" ","Ward_Name":0,"Zone":0,"Household_":0,"Pop_Num":0,"Female_Num":0,"Slum_ID":""}},{"type":"Feature","id":46,"geometry":{"type":"Point","coordinates":[91.814313779838116,22.320361891761713]},"properties":{"FID":46,"name":"Marine Workshop Masjid","Category":" ","Type":"Mosque","Ownership":" ","Ward_Name":0,"Zone":0,"Household_":0,"Pop_Num":0,"Female_Num":0,"Slum_ID":""}},{"type":"Feature","id":47,"geometry":{"type":"Point","coordinates":[91.811605056949773,22.322949793551672]},"properties":{"FID":47,"name":"Medicare medical Check Up Centre","Category":" ","Type":"Clinic","Ownership":"Private","Ward_Name":0,"Zone":0,"Household_":0,"Pop_Num":0,"Female_Num":0,"Slum_ID":""}},{"type":"Feature","id":48,"geometry":{"type":"Point","coordinates":[91.780010910804748,22.344270438344488]},"properties":{"FID":48,"name":"Mastermind Ideal School","Category":" ","Type":"School","Ownership":" ","Ward_Name":0,"Zone":0,"Household_":0,"Pop_Num":0,"Female_Num":0,"Slum_ID":""}},{"type":"Feature","id":49,"geometry":{"type":"Point","coordinates":[91.783059000353219,22.34170775884121]},"properties":{"FID":49,"name":"Markajul Ulum Madrasa Chattogram","Category":" ","Type":"Madrasa","Ownership":" ","Ward_Name":0,"Zone":0,"Household_":0,"Pop_Num":0,"Female_Num":0,"Slum_ID":""}},{"type":"Feature","id":50,"geometry":{"type":"Point","coordinates":[91.800778681884296,22.334176990806537]},"properties":{"FID":50,"name":"Masjid E Ali","Category":" ","Type":"Mosque","Ownership":" ","Ward_Name":0,"Zone":0,"Household_":0,"Pop_Num":0,"Female_Num":0,"Slum_ID":""}},{"type":"Feature","id":51,"geometry":{"type":"Point","coordinates":[91.808157985328663,22.337240546851547]},"properties":{"FID":51,"name":"Markazul Kuran Madrasha","Category":" ","Type":"Madrasa","Ownership":" ","Ward_Name":0,"Zone":0,"Household_":0,"Pop_Num":0,"Female_Num":0,"Slum_ID":""}},{"type":"Feature","id":52,"geometry":{"type":"Point","coordinates":[91.807658298517438,22.334168067827765]},"properties":{"FID":52,"name":"Medicine Mart","Category":" ","Type":"Pharmacy","Ownership":" ","Ward_Name":0,"Zone":0,"Household_":0,"Pop_Num":0,"Female_Num":0,"Slum_ID":""}},{"type":"Feature","id":53,"geometry":{"type":"Point","coordinates":[91.807393583480533,22.332017629943742]},"properties":{"FID":53,"name":"Mamata Matrisadan-3","Category":" ","Type":"Hospital","Ownership":"NGO/Institutional","Ward_Name":0,"Zone":0,"Household_":0,"Pop_Num":0,"Female_Num":0,"Slum_ID":""}},{"type":"Feature","id":54,"geometry":{"type":"Point","coordinates":[91.831688946023377,22.316132545778679]},"properties":{"FID":54,"name":"sdfsfsd","Category":"Recreational Area","Type":"dfdfd","Ownership":" ","Ward_Name":0,"Zone":0,"Household_":0,"Pop_Num":0,"Female_Num":0,"Slum_ID":""}},{"type":"Feature","id":55,"geometry":{"type":"Point","coordinates":[91.845965712058359,22.324460659299085]},"properties":{"FID":55,"name":"wewew","Category":"Public Institutional Building","Type":"dfdfr","Ownership":" ","Ward_Name":0,"Zone":0,"Household_":0,"Pop_Num":0,"Female_Num":0,"Slum_ID":""}},{"type":"Feature","id":56,"geometry":{"type":"Point","coordinates":[91.784694591158228,22.322676063544712]},"properties":{"FID":56,"name":"aaaaaaa","Category":"Slum","Type":" ","Ownership":" ","Ward_Name":0,"Zone":0,"Household_":0,"Pop_Num":0,"Female_Num":0,"Slum_ID":""}}]
}